GID,ID,NAME,TYPE,TOLLINTERV,LAT,LNG,PILENUMBER,STATUS,STARTTIME,ENDTIME,ETCGANTRYH,RSUMANUID,RSUMODEL,RUSID,VPLRUID,VPLRMODEL,VPLRID,HDVUID,HDVMODEL,HDVID,OPERATION,LINKID,CLASS,ZOOM,ZOOMNUMBER,省份编码,门架种类,使用状态,承载门架编,收费广场编,省份名称,门架类型,省界入出口标识
,G121222001000110010,山城互通至大湾收费站门架1,0,,42.3032,125.288,K161+220,0,,,,,,,,,,,,,0,5480908,,0,0,22,实体门架,在用,,,吉林省,省界收费门架,省界出口
,G121222001000110020,山城互通至大湾收费站门架2,0,,42.3028,125.281,K160+710,0,,,,,,,,,,,,,0,70039961,,0,0,22,实体门架,在用,,,吉林省,省界收费门架,省界出口
,G032137006000520120,鄄城北-德商鲁豫2门架,0,,35.6852,115.553,K238+850,0,,,,,,,,,,,,,0,57941199,,0,0,37,实体门架,在用,,,山东省,省界收费门架,省界出口
,G000663001000420010,马场垣站-马场垣主线站1,0,,36.3169,102.892,K1686+330,0,,,,,,,,,,,,,0,71168814,,0,0,63,实体门架,在用,,,青海省,省界收费门架,省界出口
,G003041005005910010,豫灵_豫陕界第一排,0,,34.5775,110.417,K896+470,0,,,,,,,,,,,,,0,15714274,,0,0,41,实体门架,在用,,,河南省,省界收费门架,省界出口
,G351137002000210040,东明北-菏宝鲁豫门架,0,,35.3317,115.095,K49+730,0,,,,,,,,,,,,,0,503094916,,0,0,37,实体门架,在用,,,山东省,省界收费门架,省界出口
,G351137002000210050,东明北-菏宝鲁豫门架,0,,35.332,115.101,K49+130,0,,,,,,,,,,,,,0,503094916,,0,0,37,实体门架,在用,,,山东省,省界收费门架,省界出口
,G061563003000910020,久治匝道站-久治主线站2,0,,33.4145,101.456,K681+200,0,,,,,,,,,,,,,0,69738879,,0,0,63,实体门架,停用,,,青海省,省界收费门架,省界出口
,G061563003000910010,久治匝道站-久治主线站1,0,,33.4155,101.461,K680+700,0,,,,,,,,,,,,,0,69738879,,0,0,63,实体门架,停用,,,青海省,省界收费门架,省界出口
,G003061005000420010,陈仓省界至坪头匝道,0,,34.3923,106.876,K1257+670,0,,,,,,,,,,,,,0,109148620,,0,0,61,实体门架,在用,,,陕西省,省界收费门架,省界入口
,G201264001001310020,营盘水省界出口门架2,0,,37.4289,104.317,K319+570,0,,,,,,,,,,,,,0,5794764,,0,0,64,实体门架,在用,,,宁夏回族自治区,省界收费门架,省界出口
,G201264001001320020,营盘水省界入口门架2,0,,37.4279,104.311,K320+070,0,,,,,,,,,,,,,0,5794765,,0,0,64,实体门架,在用,,,宁夏回族自治区,省界收费门架,省界入口
,G001123003001320200,复兴主线-西湖岫虚门架,0,,43.7905,128.863,K495+200,0,,,,,,,,,,,,,0,600021246,,0,0,23,实体门架,在用,,,黑龙江省,省界收费门架,省界入口
,S008341005005720010,豫鄂省界_邓州南构林第一排,0,,32.4373,112.116,K1448+665,0,,,,,,,,,,,,,0,90546926,,0,0,41,实体门架,在用,,,河南省,省界收费门架,省界入口
,G001123003001320210,复兴主线-西湖岫虚门架,0,,43.7825,128.846,K497+000,0,,,,,,,,,,,,,0,72029816,,0,0,23,实体门架,在用,,,黑龙江省,省界收费门架,省界入口
,G003061005000410010,坪头匝道至陈仓省界,0,,34.3926,106.876,K1257+640,0,,,,,,,,,,,,,0,61062793,,0,0,61,实体门架,在用,,,陕西省,省界收费门架,省界出口
,G001123003001310210,西湖岫虚-复兴主线门架,0,,43.7943,128.865,K494+800,0,,,,,,,,,,,,,0,72029819,,0,0,23,实体门架,在用,,,黑龙江省,省界收费门架,省界出口
,G001123003001310200,西湖岫虚-复兴主线门架,0,,43.808,128.881,K492+500,0,,,,,,,,,,,,,0,49428088,,0,0,23,实体门架,在用,,,黑龙江省,省界收费门架,省界出口
,G000111001001020010,北京香河站-北京京哈高速互通1,0,,39.8002,116.934,K39+730,0,,,,,,,,,,,,,0,249678,,0,0,11,实体门架,在用,,,北京市,省界收费门架,省界入口
,G004061001000110020,陕西商南省界至商南西匝道,0,,33.4725,110.889,K1296+550,0,,,,,,,,,,,,,0,15843060,,0,0,61,实体门架,在用,,,陕西省,省界收费门架,省界入口
,G000111001000910020,北京京哈高速互通-北京香河站2,0,,39.8,116.933,K39+700,0,,,,,,,,,,,,,0,68100714,,0,0,11,实体门架,在用,,,北京市,省界收费门架,省界出口
,G004061001000110010,陕西商南省界至商南西匝道,0,,33.4717,110.897,K1295+920,0,,,,,,,,,,,,,0,3497462,,0,0,61,实体门架,在用,,,陕西省,省界收费门架,省界入口
,G000111001000910010,北京京哈高速互通-北京香河站1,0,,39.7999,116.926,K39+100,0,,,,,,,,,,,,,0,68100709,,0,0,11,实体门架,在用,,,北京市,省界收费门架,省界出口
,S008341005005710010,邓州南构林_豫鄂省界第一排,0,,32.4383,112.116,K1448+635,0,,,,,,,,,,,,,0,3267262,,0,0,41,实体门架,在用,,,河南省,省界收费门架,省界出口
,G201264001001320010,营盘水省界入口门架1,0,,37.4288,104.317,K320+040,0,,,,,,,,,,,,,0,5794765,,0,0,64,实体门架,在用,,,宁夏回族自治区,省界收费门架,省界入口
,G201264001001310010,营盘水省界出口门架1,0,,37.4299,104.323,K319+540,0,,,,,,,,,,,,,0,5794764,,0,0,64,实体门架,在用,,,宁夏回族自治区,省界收费门架,省界出口
,G000765001000310010,G7甘新省界-新疆白山泉匝道站1,0,,42.1207,96.0089,K1997+700,0,,,,,,,,,,,,,0,72919511,,0,0,65,实体门架,在用,,,新疆维吾尔自治区,省界收费门架,省界入口
,G000765001000310020,G7甘新省界-新疆白山泉匝道站2,0,,42.1218,96.003,K1998+200,0,,,,,,,,,,,,,0,72919511,,0,0,65,实体门架,在用,,,新疆维吾尔自治区,省界收费门架,省界入口
,G004523001000720060,永利主线-肇源虚门架,0,,45.531,125.024,K142+400,0,,,,,,,,,,,,,0,49805549,,0,0,23,实体门架,在用,,,黑龙江省,省界收费门架,省界入口
,G000765001000320010,新疆白山泉匝道站-G7甘新省界1,0,,42.1215,96.0026,K1998+230,0,,,,,,,,,,,,,0,72919504,,0,0,65,实体门架,在用,,,新疆维吾尔自治区,省界收费门架,省界出口
,G004523001000720070,永利主线-肇源虚门架,0,,45.526,125.02,K143+000,0,,,,,,,,,,,,,0,49805550,,0,0,23,实体门架,在用,,,黑龙江省,省界收费门架,省界入口
,G000765001000320020,新疆白山泉匝道站-G7甘新省界2,0,,42.1225,95.9972,K1998+730,0,,,,,,,,,,,,,0,32228263,,0,0,65,实体门架,在用,,,新疆维吾尔自治区,省界收费门架,省界出口
,G000123001000720040,石家匝道点-拉林河主线门架,0,,45.166,126.144,K1139+400,0,,,,,,,,,,,,,0,42370668,,0,0,23,实体门架,在用,,,黑龙江省,省界收费门架,省界出口
,G000123001000720030,石家匝道点-拉林河主线门架,0,,45.1692,126.146,K1139+700,0,,,,,,,,,,,,,0,5220787,,0,0,23,实体门架,在用,,,黑龙江省,省界收费门架,省界出口
,G004523001000710070,肇源虚-永利主线门架,0,,45.5352,125.027,K141+925,0,,,,,,,,,,,,,0,12531699,,0,0,23,实体门架,在用,,,黑龙江省,省界收费门架,省界出口
,G004523001000710060,肇源虚-永利主线门架,0,,45.542,125.031,K141+130,0,,,,,,,,,,,,,0,12531699,,0,0,23,实体门架,在用,,,黑龙江省,省界收费门架,省界出口
,G000113001004020020,玉田匝道收费站-津冀界2,0,,39.7438,117.683,K110+330,0,,,,,,,,,,,,,0,7317134,,0,0,13,实体门架,在用,,,河北省,省界收费门架,省界出口
,G000113001004020010,玉田匝道收费站-津冀界1,0,,39.7456,117.689,K110+830,0,,,,,,,,,,,,,0,7317134,,0,0,13,实体门架,在用,,,河北省,省界收费门架,省界出口
,G001813005000220010,冀晋界-涞源西枢纽互通1,0,,39.3689,114.57,K1002+750,0,,,,,,,,,,,,,0,109677342,,0,0,13,实体门架,在用,,,河北省,省界收费门架,省界入口
,G001813005000220020,冀晋界-涞源西枢纽互通2,0,,39.3714,114.566,K1003+250,0,,,,,,,,,,,,,0,109677342,,0,0,13,实体门架,在用,,,河北省,省界收费门架,省界入口
,G000713001002420010,西洋河临时主线收费站-柴沟堡收费站1,0,,40.6648,114.323,K240+530,0,,,,,,,,,,,,,0,77974683,,0,0,13,实体门架,在用,,,河北省,省界收费门架,省界入口
,G000713001002420020,西洋河临时主线收费站-柴沟堡收费站2,0,,40.6652,114.317,K241+030,0,,,,,,,,,,,,,0,77974683,,0,0,13,实体门架,在用,,,河北省,省界收费门架,省界入口
,G001813005000110020,涞源西枢纽互通-冀晋界2,0,,39.3687,114.571,K1002+720,0,,,,,,,,,,,,,0,109677339,,0,0,13,实体门架,在用,,,河北省,省界收费门架,省界出口
,G000713001002310020,柴沟堡收费站-西洋河临时主线收费站2,0,,40.6648,114.324,K240+500,0,,,,,,,,,,,,,0,77974680,,0,0,13,实体门架,在用,,,河北省,省界收费门架,省界出口
,G001813005000110010,涞源西枢纽互通-冀晋界1,0,,39.3657,114.577,K1002+110,0,,,,,,,,,,,,,0,109677339,,0,0,13,实体门架,在用,,,河北省,省界收费门架,省界出口
,G000713001002310010,柴沟堡收费站-西洋河临时主线收费站1,0,,40.6629,114.331,K240+000,0,,,,,,,,,,,,,0,77974680,,0,0,13,实体门架,在用,,,河北省,省界收费门架,省界出口
,S003261001000720020,陕西佳县至佳县,0,,38.0388,110.482,K1+270,0,,,,,,,,,,,,,0,15768826,,0,0,61,实体门架,在用,,,陕西省,省界收费门架,省界入口
,G002037007000920110,青银鲁冀-德商青银立交门架,0,,37.0198,115.88,K454+200,0,,,,,,,,,,,,,0,109710973,,0,0,37,实体门架,在用,,,山东省,省界收费门架,省界入口
,G002037007000920100,青银鲁冀-德商青银立交门架,0,,37.0224,115.866,K455+500,0,,,,,,,,,,,,,0,2701768,,0,0,37,实体门架,在用,,,山东省,省界收费门架,省界入口
,G002037007000810090,德商青银立交-青银鲁冀门架,0,,37.0196,115.886,K453+700,0,,,,,,,,,,,,,0,109710998,,0,0,37,实体门架,在用,,,山东省,省界收费门架,省界出口
,G002037007000810080,德商青银立交-青银鲁冀门架,0,,37.0195,115.893,K453+200,0,,,,,,,,,,,,,0,109710998,,0,0,37,实体门架,在用,,,山东省,省界收费门架,省界出口
,G000313004001220020,冀鲁界吴桥主线收费站-吴桥收费站2,0,,37.6069,116.435,K264+730,0,,,,,,,,,,,,,0,109991851,,0,0,13,实体门架,在用,,,河北省,省界收费门架,省界入口
,G000411001001120020,北京琉璃河南站-北京琉璃河站2,0,,39.5828,116.046,K44+230,0,,,,,,,,,,,,,0,355881,,0,0,11,实体门架,在用,,,北京市,省界收费门架,省界入口
,G000313004001220010,冀鲁界吴桥主线收费站-吴桥收费站1,0,,37.6112,116.437,K264+230,0,,,,,,,,,,,,,0,109991851,,0,0,13,实体门架,在用,,,河北省,省界收费门架,省界入口
,G000411001001010020,北京琉璃河站-北京琉璃河南站2,0,,39.5871,116.05,K43+700,0,,,,,,,,,,,,,0,49044814,,0,0,11,实体门架,在用,,,北京市,省界收费门架,省界出口
,G000411001001010010,北京琉璃河站-北京琉璃河南站1,0,,39.5912,116.054,K43+200,0,,,,,,,,,,,,,0,49044814,,0,0,11,实体门架,在用,,,北京市,省界收费门架,省界出口
,G000313004001110020,吴桥收费站-冀鲁界吴桥主线收费站2,0,,37.612,116.437,K264+200,0,,,,,,,,,,,,,0,109991856,,0,0,13,实体门架,在用,,,河北省,省界收费门架,省界出口
,G000313004001110010,吴桥收费站-冀鲁界吴桥主线收费站1,0,,37.6161,116.438,K263+700,0,,,,,,,,,,,,,0,109991856,,0,0,13,实体门架,在用,,,河北省,省界收费门架,省界出口
,G000663001000410020,马场垣主线站-马场垣站2,0,,36.3135,102.898,K1685+740,0,,,,,,,,,,,,,0,95172394,,0,0,63,实体门架,在用,,,青海省,省界收费门架,省界入口
,G000663001000410010,马场垣主线站-马场垣站1,0,,36.3103,102.902,K1685+235,0,,,,,,,,,,,,,0,95172394,,0,0,63,实体门架,在用,,,青海省,省界收费门架,省界入口
,G002515001000620020,布敦花-查日苏2,0,,43.0608,123.438,K196+330,0,,,,,,,,,,,,,0,101378813,,0,0,15,实体门架,在用,,,内蒙古自治区,省界收费门架,省界入口
,G011112001000120020,滨保秦滨(北)互通(大神堂)-秦滨省界(河北)涧河收费站2,0,,39.2133,117.949,K170+800,0,,,,,,,,,,,,,0,87907068,,0,0,12,实体门架,在用,,,天津市,省界收费门架,省界出口
,G011112001000120040,滨保秦滨(北)互通(大神堂)-秦滨省界(河北)涧河收费站4,0,,39.2125,117.943,K171+300,0,,,,,,,,,,,,,0,87907068,,0,0,12,实体门架,在用,,,天津市,省界收费门架,省界出口
,G000213001000110020,冀津界青县主线收费站-青县收费站2,0,,38.5932,116.806,K162+200,0,,,,,,,,,,,,,0,2946239,,0,0,13,实体门架,在用,,,河北省,省界收费门架,省界入口
,G000213001000110010,冀津界青县主线收费站-青县收费站1,0,,38.5971,116.809,K161+700,0,,,,,,,,,,,,,0,2946239,,0,0,13,实体门架,在用,,,河北省,省界收费门架,省界入口
,G000213001000220010,青县收费站-冀津界青县主线收费站1,0,,38.5925,116.805,K162+230,0,,,,,,,,,,,,,0,10488653,,0,0,13,实体门架,在用,,,河北省,省界收费门架,省界出口
,G000213001000220020,青县收费站-冀津界青县主线收费站2,0,,38.5882,116.803,K162+730,0,,,,,,,,,,,,,0,10488653,,0,0,13,实体门架,在用,,,河北省,省界收费门架,省界出口
,G000212002000620040,津沧南京沪二互通(大张屯)-京沪津石互通(胡辛庄)4,0,,38.7614,116.882,K139+200,0,,,,,,,,,,,,,0,12716704,,0,0,12,实体门架,在用,,,天津市,省界收费门架,省界入口
,G000212002000620020,津沧南京沪二互通(大张屯)-京沪津石互通(胡辛庄)2,0,,38.7569,116.882,K139+700,0,,,,,,,,,,,,,0,12716704,,0,0,12,实体门架,在用,,,天津市,省界收费门架,省界入口
,G006561001000110020,陕蒙界省界至红碱淖匝道,0,,39.0128,109.792,K216+343,0,,,,,,,,,,,,,0,502108165,,0,0,61,实体门架,在用,,,陕西省,省界收费门架,省界入口
,G006561001000110010,陕蒙界省界至红碱淖匝道,0,,39.017,109.793,K215+880,0,,,,,,,,,,,,,0,502108165,,0,0,61,实体门架,在用,,,陕西省,省界收费门架,省界入口
,G000212002000610010,京沪津石互通(胡辛庄)-津沧南京沪二互通(大张屯)1,0,,38.7631,116.882,K139+000,0,,,,,,,,,,,,,0,7789420,,0,0,12,实体门架,在用,,,天津市,省界收费门架,省界出口
,G000212002000610030,京沪津石互通(胡辛庄)-津沧南京沪二互通(大张屯)3,0,,38.7675,116.881,K138+500,0,,,,,,,,,,,,,0,12716703,,0,0,12,实体门架,在用,,,天津市,省界收费门架,省界出口
,G006561001000120020,红碱淖匝道至陕蒙界省界,0,,39.0121,109.792,K216+445,0,,,,,,,,,,,,,0,504106481,,0,0,61,实体门架,在用,,,陕西省,省界收费门架,省界出口
,G002061003000820010,王圈梁省界至定边匝道,0,,37.6477,107.581,K1360+020,0,,,,,,,,,,,,,0,54393852,,0,0,61,实体门架,在用,,,陕西省,省界收费门架,省界入口
,G002061003000820020,王圈梁省界至定边匝道,0,,37.6515,107.578,K1360+520,0,,,,,,,,,,,,,0,54393852,,0,0,61,实体门架,在用,,,陕西省,省界收费门架,省界入口
,G006561001000120010,红碱淖匝道至陕蒙界省界,0,,39.0076,109.791,K216+945,0,,,,,,,,,,,,,0,504106481,,0,0,61,实体门架,在用,,,陕西省,省界收费门架,省界出口
,G002261001001320020,陕西富县省界至张家湾匝道,0,,36.1056,108.714,K1261+450,0,,,,,,,,,,,,,0,97468768,,0,0,61,实体门架,在用,,,陕西省,省界收费门架,省界入口
,G002261001001320010,陕西富县省界至张家湾匝道,0,,36.1077,108.708,K1261+950,0,,,,,,,,,,,,,0,97468768,,0,0,61,实体门架,在用,,,陕西省,省界收费门架,省界入口
,G002061003000810020,定边匝道至王圈梁省界,0,,37.647,107.582,K1359+970,0,,,,,,,,,,,,,0,54393850,,0,0,61,实体门架,在用,,,陕西省,省界收费门架,省界出口
,G002261001001310020,张家湾匝道至陕西富县省界,0,,36.1056,108.714,K1261+400,0,,,,,,,,,,,,,0,40297313,,0,0,61,实体门架,在用,,,陕西省,省界收费门架,省界出口
,G002061003000810010,定边匝道至王圈梁省界,0,,37.6433,107.586,K1359+470,0,,,,,,,,,,,,,0,54393850,,0,0,61,实体门架,在用,,,陕西省,省界收费门架,省界出口
,G002261001001310010,张家湾匝道至陕西富县省界,0,,36.1014,108.72,K1260+624,0,,,,,,,,,,,,,0,40297313,,0,0,61,实体门架,在用,,,陕西省,省界收费门架,省界出口
,G000511001001220010,北京镇江营站-北京张坊站1,0,,39.5398,115.748,K58+250,0,,,,,,,,,,,,,0,17763764,,0,0,11,实体门架,在用,,,北京市,省界收费门架,省界入口
,G000511001001220020,北京镇江营站-北京张坊站2,0,,39.5319,115.748,K59+000,0,,,,,,,,,,,,,0,17763780,,0,0,11,实体门架,在用,,,北京市,省界收费门架,省界入口
,G000511001001110020,北京张坊站-北京镇江营站2,0,,39.5406,115.748,K58+220,0,,,,,,,,,,,,,0,17763762,,0,0,11,实体门架,在用,,,北京市,省界收费门架,省界出口
,G000511001001110010,北京张坊站-北京镇江营站1,0,,39.5451,115.749,K57+720,0,,,,,,,,,,,,,0,17763762,,0,0,11,实体门架,在用,,,北京市,省界收费门架,省界出口
,G004522002001710010,双辽北收费站至协力互通S门架1,0,,43.6483,123.558,K405+400,0,,,,,,,,,,,,,0,5542635,,0,0,22,实体门架,在用,G004522002001710010,G00452200200901020,吉林省,省界收费门架,省界入口
,G004522002001710020,双辽北收费站至协力互通S门架2,0,,43.6478,123.552,K405+900,0,,,,,,,,,,,,,0,5542635,,0,0,22,实体门架,在用,G004522002001710020,G00452200200901020,吉林省,省界收费门架,省界入口
,G000613001000110020,省界K69(000)到东花园收费站2,0,,40.3371,115.834,K73+900,0,,,,,,,,,,,,,0,503064275,,0,0,13,实体门架,在用,,,河北省,省界收费门架,省界入口
,G000613001000110010,省界K69(000)到东花园收费站1,0,,40.3385,115.84,K73+370,0,,,,,,,,,,,,,0,607063976,,0,0,13,实体门架,在用,,,河北省,省界收费门架,省界入口
,G000561001000120010,工业园匝道至禹门口省界,0,,35.5967,110.573,K839+195,0,,,,,,,,,,,,,0,17884714,,0,0,61,实体门架,在用,,,陕西省,省界收费门架,省界出口
,G000613001000220010,东花园收费站到省界K69(000)1,0,,40.3367,115.833,K73+950,0,,,,,,,,,,,,,0,603064198,,0,0,13,实体门架,在用,,,河北省,省界收费门架,省界出口
,G001023001000220010,黑蒙界主线-甘南虚门架,0,,47.9856,123.498,K881+650,0,,,,,,,,,,,,,0,30241285,,0,0,23,实体门架,在用,,,黑龙江省,省界收费门架,省界入口
,G000613001000220020,东花园收费站到省界K69(000)2,0,,40.3354,115.827,K74+450,0,,,,,,,,,,,,,0,507063668,,0,0,13,实体门架,在用,,,河北省,省界收费门架,省界出口
,G001023001000210020,甘南虚-黑蒙界主线门架,0,,47.9825,123.503,K881+150,0,,,,,,,,,,,,,0,85269702,,0,0,23,实体门架,在用,,,黑龙江省,省界收费门架,省界出口
,G001023001000210010,甘南虚-黑蒙界主线门架,0,,47.9787,123.509,K880+500,0,,,,,,,,,,,,,0,85269702,,0,0,23,实体门架,在用,,,黑龙江省,省界收费门架,省界出口
,G002261001000110010,陕西壶口省界至壶口匝道,0,,36.0486,110.477,K1070+060,0,,,,,,,,,,,,,0,85121612,,0,0,61,实体门架,在用,,,陕西省,省界收费门架,省界入口
,G001222001002810020,石头井子收费站至岭下互通门架2,0,,45.8706,122.382,K886+632,0,,,,,,,,,,,,,0,71357211,,0,0,22,实体门架,在用,,,吉林省,省界收费门架,省界入口
,G002261001000120010,壶口匝道至陕西壶口省界,0,,36.0484,110.473,K1070+325,0,,,,,,,,,,,,,0,85121614,,0,0,61,实体门架,在用,,,陕西省,省界收费门架,省界出口
,G001222001002820020,岭下互通至石头井子收费站门架2,0,,45.8678,122.387,K886+180,0,,,,,,,,,,,,,0,88162016,,0,0,22,实体门架,在用,,,吉林省,省界收费门架,省界出口
,S001022001000210020,下排收费站至英额布互通门架2,0,,41.7292,125.355,K43+760,0,,,,,,,,,,,,,0,4937590,,0,0,22,实体门架,在用,,,吉林省,省界收费门架,省界入口
,S001022001000210010,下排收费站至英额布互通门架1,0,,41.7271,125.349,K44+280,0,,,,,,,,,,,,,0,61713713,,0,0,22,实体门架,在用,,,吉林省,省界收费门架,省界入口
,S001022001000220010,英额布互通至下排收费站门架1,0,,41.7311,125.361,K43+230,0,,,,,,,,,,,,,0,78365339,,0,0,22,实体门架,在用,,,吉林省,省界收费门架,省界出口
,G451223003003020140,街基主线-泰来虚门架,0,,46.299,123.406,K325+500,0,,,,,,,,,,,,,0,70309325,,0,0,23,实体门架,在用,,,黑龙江省,省界收费门架,省界入口
,G451223003003020150,街基主线-泰来虚门架,0,,46.2933,123.405,K325+250,0,,,,,,,,,,,,,0,70309325,,0,0,23,实体门架,在用,,,黑龙江省,省界收费门架,省界入口
,G002264001000310010,隆德-毛家沟上行门架（隆德省界出口）,0,,35.6106,106.113,K1620+500,0,,,,,,,,,,,,,0,69760086,,0,0,64,实体门架,在用,,,宁夏回族自治区,省界收费门架,省界出口
,G181764001000120020,银巴省界入口门架2,0,,38.3683,105.975,K215+730,0,,,,,,,,,,,,,0,90505356,,0,0,64,实体门架,在用,,,宁夏回族自治区,省界收费门架,省界入口
,G000613002001820010,冀蒙界-怀安互通收费站1,0,,40.6982,114.371,K220+900,0,,,,,,,,,,,,,0,88588812,,0,0,13,实体门架,在用,,,河北省,省界收费门架,省界入口
,G000613002001820020,冀蒙界-怀安互通收费站2,0,,40.6982,114.365,K220+400,0,,,,,,,,,,,,,0,88588812,,0,0,13,实体门架,在用,,,河北省,省界收费门架,省界入口
,G000613002001710020,怀安互通收费站-冀蒙界2,0,,40.6984,114.372,K220+370,0,,,,,,,,,,,,,0,12571235,,0,0,13,实体门架,在用,,,河北省,省界收费门架,省界出口
,G000613002001710010,怀安互通收费站-冀蒙界1,0,,40.6984,114.378,K219+870,0,,,,,,,,,,,,,0,2864400,,0,0,13,实体门架,在用,,,河北省,省界收费门架,省界出口
,G002515001000220020,金宝屯-那木斯2,0,,43.3951,123.537,K157+080,0,,,,,,,,,,,,,0,70309412,,0,0,15,实体门架,在用,,,内蒙古自治区,省界收费门架,省界出口
,G002515001000220010,金宝屯-那木斯1,0,,43.3911,123.534,K157+580,0,,,,,,,,,,,,,0,70309412,,0,0,15,实体门架,在用,,,内蒙古自治区,省界收费门架,省界出口
,G000664001000110020,惠农省界入口门架2,0,,39.2928,106.721,K1078+480,0,,,,,,,,,,,,,0,507025892,,0,0,64,实体门架,在用,,,宁夏回族自治区,省界收费门架,省界入口
,G000664001000110010,惠农省界入口门架1,0,,39.2975,106.722,K1077+970,0,,,,,,,,,,,,,0,507025892,,0,0,64,实体门架,在用,,,宁夏回族自治区,省界收费门架,省界入口
,G000664001000120010,惠农省界出口门架1,0,,39.2921,106.722,K1078+500,0,,,,,,,,,,,,,0,607024390,,0,0,64,实体门架,在用,,,宁夏回族自治区,省界收费门架,省界出口
,G000664001000120020,惠农省界出口门架2,0,,39.288,106.721,K1079+000,0,,,,,,,,,,,,,0,607024390,,0,0,64,实体门架,在用,,,宁夏回族自治区,省界收费门架,省界出口
,G002515001000620010,布敦花-查日苏1,0,,43.0566,123.438,K196+830,0,,,,,,,,,,,,,0,101378814,,0,0,15,实体门架,在用,,,内蒙古自治区,省界收费门架,省界入口
,G000413001000110020,冀京省界-健康城站2,0,,39.5664,116.038,K46+220,0,,,,,,,,,,,,,0,506120736,,0,0,13,实体门架,在用,,,河北省,省界收费门架,省界入口
,G000413001000110010,冀京省界-健康城站1,0,,39.5706,116.039,K45+720,0,,,,,,,,,,,,,0,505119797,,0,0,13,实体门架,停用,,,河北省,省界收费门架,省界入口
,G002515001000610020,查日苏-布敦花2,0,,43.0616,123.437,K196+280,0,,,,,,,,,,,,,0,64234157,,0,0,15,实体门架,在用,,,内蒙古自治区,省界收费门架,省界出口
,G002515001000610010,查日苏-布敦花1,0,,43.066,123.437,K195+780,0,,,,,,,,,,,,,0,64234155,,0,0,15,实体门架,在用,,,内蒙古自治区,省界收费门架,省界出口
,G002061001000110010,吴堡主线至吴堡匝道,0,,37.458,110.692,K1053+180,0,,,,,,,,,,,,,0,6530971,,0,0,61,实体门架,在用,,,陕西省,省界收费门架,省界入口
,G002061001000120010,吴堡匝道至吴堡主线,0,,37.4587,110.691,K1053+269,0,,,,,,,,,,,,,0,6530959,,0,0,61,实体门架,在用,,,陕西省,省界收费门架,省界出口
,G001122004000810010,新开岭收费站至大泉源互通门架1,0,,41.516,125.526,K951+830,0,,,,,,,,,,,,,0,12671600,,0,0,22,实体门架,在用,,,吉林省,省界收费门架,省界入口
,G001122004000810020,新开岭收费站至大泉源互通门架2,0,,41.5124,125.523,K952+300,0,,,,,,,,,,,,,0,12671600,,0,0,22,实体门架,在用,,,吉林省,省界收费门架,省界入口
,G001122004000820020,大泉源互通至新开岭收费站门架2,0,,41.5167,125.527,K951+780,0,,,,,,,,,,,,,0,15253829,,0,0,22,实体门架,在用,,,吉林省,省界收费门架,省界出口
,G001122004000820010,大泉源互通至新开岭收费站门架1,0,,41.5204,125.53,K951+260,0,,,,,,,,,,,,,0,15253829,,0,0,22,实体门架,在用,,,吉林省,省界收费门架,省界出口
,G004522002006020020,协力互通S至双辽北收费站门架2,0,,43.6484,123.559,K405+350,0,,,,,,,,,,,,,0,20132499,,0,0,22,实体门架,在用,G004522002006020020,G00452200200902020,吉林省,省界收费门架,省界出口
,G004522002006020010,协力互通S至双辽北收费站门架1,0,,43.6484,123.566,K404+820,0,,,,,,,,,,,,,0,20132500,,0,0,22,实体门架,在用,G004522002006020010,G00452200200902020,吉林省,省界收费门架,省界出口
,G002515001000210020,那木斯-金宝屯2,0,,43.3954,123.537,K157+030,0,,,,,,,,,,,,,0,70309410,,0,0,15,实体门架,在用,,,内蒙古自治区,省界收费门架,省界入口
,G002515001000210010,那木斯-金宝屯1,0,,43.4003,123.541,K156+530,0,,,,,,,,,,,,,0,70309410,,0,0,15,实体门架,在用,,,内蒙古自治区,省界收费门架,省界入口
,G004515001000210020,欧里主线-巴彦塔拉2,0,,43.625,123.353,K423+800,0,,,,,,,,,,,,,0,610090837,,0,0,15,实体门架,在用,,,内蒙古自治区,省界收费门架,省界入口
,G004515001000220020,巴彦塔拉-欧里主线2,0,,43.6248,123.352,K423+850,0,,,,,,,,,,,,,0,506092267,,0,0,15,实体门架,在用,,,内蒙古自治区,省界收费门架,省界出口
,G004515001000220010,巴彦塔拉-欧里主线1,0,,43.6245,123.346,K424+350,0,,,,,,,,,,,,,0,620091403,,0,0,15,实体门架,在用,,,内蒙古自治区,省界收费门架,省界出口
,G000615010001420010,蒙宁界-乌斯太1,0,,39.3913,106.72,K1067+015,0,,,,,,,,,,,,,0,35661438,,0,0,15,实体门架,在用,,,内蒙古自治区,省界收费门架,省界出口
,G000615010001410010,乌斯太-蒙宁界1,0,,39.3919,106.72,K1066+950,0,,,,,,,,,,,,,0,13973722,,0,0,15,实体门架,在用,,,内蒙古自治区,省界收费门架,省界入口
,S001522001000510010,安恕主线收费站至安恕互通门架1,0,,42.8047,124.996,K71+000,0,,,,,,,,,,,,,0,17102302,,0,0,22,实体门架,在用,,,吉林省,省界收费门架,省界入口
,G181261001000110010,府谷主线至府谷互通立交,0,,38.9707,110.989,K585+200,0,,,,,,,,,,,,,0,86428590,,0,0,61,实体门架,在用,,,陕西省,省界收费门架,省界入口
,S001522001000510020,安恕主线收费站至安恕互通门架2,0,,42.7945,124.989,K72+250,0,,,,,,,,,,,,,0,68183774,,0,0,22,实体门架,在用,,,吉林省,省界收费门架,省界入口
,S003211001001420010,北京夏各庄站-北京南太务站1,0,,40.1059,117.214,K68+800,0,,,,,,,,,,,,,0,14762373,,0,0,11,实体门架,在用,,,北京市,省界收费门架,省界入口
,G012112001000620040,许家台收费站匝道互通-京秦省界(河北)白涧站收费站4,0,,40.0176,117.236,K63+800,0,,,,,,,,,,,,,0,39600198,,0,0,12,实体门架,在用,,,天津市,省界收费门架,省界出口
,G012112001000620020,许家台收费站匝道互通-京秦省界(河北)白涧站收费站2,0,,40.0171,117.241,K63+250,0,,,,,,,,,,,,,0,39600197,,0,0,12,实体门架,在用,,,天津市,省界收费门架,省界出口
,G181261001000120010,府谷互通立交至府谷主线,0,,38.9702,110.988,K585+100,0,,,,,,,,,,,,,0,86428592,,0,0,61,实体门架,在用,,,陕西省,省界收费门架,省界出口
,S003211001001310020,北京南太务站-北京夏各庄站2,0,,40.1257,117.205,K66+700,0,,,,,,,,,,,,,0,426950,,0,0,11,实体门架,在用,,,北京市,省界收费门架,省界出口
,S003211001001310010,北京南太务站-北京夏各庄站1,0,,40.1298,117.2,K66+200,0,,,,,,,,,,,,,0,15154610,,0,0,11,实体门架,在用,,,北京市,省界收费门架,省界出口
,G002522003000510010,那木斯收费站至双辽南互通门架1,0,,43.4333,123.578,K152+460,0,,,,,,,,,,,,,0,43932588,,0,0,22,实体门架,在用,,,吉林省,省界收费门架,省界入口
,G002522003000510020,那木斯收费站至双辽南互通门架2,0,,43.4303,123.573,K152+960,0,,,,,,,,,,,,,0,43932588,,0,0,22,实体门架,在用,,,吉林省,省界收费门架,省界入口
,G002522003000520020,双辽南互通至那木斯收费站门架2,0,,43.4339,123.578,K152+410,0,,,,,,,,,,,,,0,43932602,,0,0,22,实体门架,在用,,,吉林省,省界收费门架,省界出口
,G002522003000520010,双辽南互通至那木斯收费站门架1,0,,43.4364,123.582,K151+910,0,,,,,,,,,,,,,0,13168441,,0,0,22,实体门架,在用,,,吉林省,省界收费门架,省界出口
,G012112001000120020,京秦省界(河北)别山站收费站-京秦塘承互通2,0,,39.9394,117.498,K87+600,0,,,,,,,,,,,,,0,110686577,,0,0,12,实体门架,在用,,,天津市,省界收费门架,省界入口
,G001814010000110010,驿马岭站至灵丘站1,0,,39.4575,114.307,K1029+700,0,,,,,,,,,,,,,0,110057327,,0,0,14,实体门架,在用,,,山西省,省界收费门架,省界入口
,G012112001000120040,京秦省界(河北)别山站收费站-京秦塘承互通4,0,,39.9391,117.504,K89+100,0,,,,,,,,,,,,,0,41925171,,0,0,12,实体门架,在用,,,天津市,省界收费门架,省界入口
,G012112001000110030,京秦塘承互通-京秦省界(河北)别山站收费站3,0,,39.9392,117.488,K87+800,0,,,,,,,,,,,,,0,110686579,,0,0,12,实体门架,在用,,,天津市,省界收费门架,省界出口
,G001814010000220010,灵丘站至驿马岭站1,0,,39.4574,114.307,K1029+750,0,,,,,,,,,,,,,0,40291427,,0,0,14,实体门架,在用,,,山西省,省界收费门架,省界出口
,G000413001000220010,健康城站-冀京省界1,0,,39.5659,116.038,K46+250,0,,,,,,,,,,,,,0,607120148,,0,0,13,实体门架,在用,,,河北省,省界收费门架,省界出口
,G000413001000220020,健康城站-冀京省界2,0,,39.5614,116.039,K46+750,0,,,,,,,,,,,,,0,608119957,,0,0,13,实体门架,停用,,,河北省,省界收费门架,省界出口
,G001N11001000210010,北京平家疃站-北京京秦京冀站1,0,,40.0065,116.745,K20+200,0,,,,,,,,,,,,,0,76261170,,0,0,11,实体门架,在用,,,北京市,省界收费门架,省界出口
,G001N11001000320010,北京京秦京冀站-北京平家疃站1,0,,40.0069,116.747,K20+370,0,,,,,,,,,,,,,0,80210511,,0,0,11,实体门架,在用,,,北京市,省界收费门架,省界入口
,G001813002000110010,冀津省界-杨芬港收费站1,0,,39.1572,116.866,K776+965,0,,,,,,,,,,,,,0,77270929,,0,0,13,实体门架,在用,,,河北省,省界收费门架,省界入口
,G002064001001410010,青银盐池东枢纽-盐池省界门架,0,,37.7348,107.495,K1373+516,0,,,,,,,,,,,,,0,6427700,,0,0,64,实体门架,在用,,,宁夏回族自治区,省界收费门架,省界出口
,G001813002000220010,杨芬港收费站-冀津省界1,0,,39.1568,116.865,K776+995,0,,,,,,,,,,,,,0,507105099,,0,0,13,实体门架,在用,,,河北省,省界收费门架,省界出口
,G011113002000110010,津冀界-中捷收费站1,0,,38.5995,117.549,K253+720,0,,,,,,,,,,,,,0,78306641,,0,0,13,实体门架,在用,,,河北省,省界收费门架,省界入口
,G011113002000110020,津冀界-中捷收费站2,0,,38.5957,117.552,K254+220,0,,,,,,,,,,,,,0,41890954,,0,0,13,实体门架,在用,,,河北省,省界收费门架,省界入口
,G011113002000220020,中捷收费站-津冀界2,0,,38.5954,117.553,K254+250,0,,,,,,,,,,,,,0,33889986,,0,0,13,实体门架,在用,,,河北省,省界收费门架,省界出口
,G011113002000220010,中捷收费站-津冀界1,0,,38.5918,117.557,K254+750,0,,,,,,,,,,,,,0,33889986,,0,0,13,实体门架,在用,,,河北省,省界收费门架,省界出口
,G002521001000110010,海洲收费站-康平北互通立交1,0,,43.0262,123.443,K200+960,0,,,,,,,,,,,,,0,41616992,,0,0,21,实体门架,在用,,,辽宁省,省界收费门架,省界入口
,G002521001000110020,海洲收费站-康平北互通立交2,0,,43.0217,123.443,K201+460,0,,,,,,,,,,,,,0,41616991,,0,0,21,实体门架,在用,,,辽宁省,省界收费门架,省界入口
,G002521001000120010,康平北互通立交-海洲收费站1,0,,43.0209,123.444,K201+495,0,,,,,,,,,,,,,0,32825172,,0,0,21,实体门架,在用,,,辽宁省,省界收费门架,省界出口
,G002521001000120020,康平北互通立交-海洲收费站2,0,,43.0161,123.443,K202+050,0,,,,,,,,,,,,,0,32825170,,0,0,21,实体门架,在用,,,辽宁省,省界收费门架,省界出口
,G181213002002420020,保阜与山西忻阜高速连接处-东下关收费站2,0,,38.9408,113.852,K259+400,0,,,,,,,,,,,,,0,508098658,,0,0,13,实体门架,在用,,,河北省,省界收费门架,省界入口
,G000561001000110010,禹门口省界至工业园匝道,0,,35.597,110.573,K839+165,0,,,,,,,,,,,,,0,17884687,,0,0,61,实体门架,在用,,,陕西省,省界收费门架,省界入口
,G181213002002310020,东下关收费站-保阜与山西忻阜高速连接处2,0,,38.9405,113.853,K259+370,0,,,,,,,,,,,,,0,2864021,,0,0,13,实体门架,在用,,,河北省,省界收费门架,省界出口
,S001511001000720010,北京永乐站-北京德仁务站1,0,,39.6524,116.799,K30+880,0,,,,,,,,,,,,,0,49169328,,0,0,11,实体门架,在用,,,北京市,省界收费门架,省界入口
,S001511001000720020,北京永乐站-北京德仁务站2,0,,39.6493,116.803,K31+380,0,,,,,,,,,,,,,0,49169328,,0,0,11,实体门架,在用,,,北京市,省界收费门架,省界入口
,S001511001000610020,北京德仁务站-北京永乐站2,0,,39.6529,116.798,K30+850,0,,,,,,,,,,,,,0,49169326,,0,0,11,实体门架,在用,,,北京市,省界收费门架,省界出口
,S007213001000120020,庙镇收费站（冀鲁界）-景县南枢纽互通2,0,,37.5224,116.228,K80+900,0,,,,,,,,,,,,,0,504119611,,0,0,13,实体门架,在用,,,河北省,省界收费门架,省界入口
,S007213001000120010,庙镇收费站（冀鲁界）-景县南枢纽互通1,0,,37.5208,116.233,K81+400,0,,,,,,,,,,,,,0,520120870,,0,0,13,实体门架,在用,,,河北省,省界收费门架,省界入口
,G001621001000120020,黑水主线收费站-黑水互通立交2,0,,42.0987,119.406,K499+535,0,,,,,,,,,,,,,0,49219798,,0,0,21,实体门架,在用,,,辽宁省,省界收费门架,省界入口
,S001021001000710010,旺清门南匝道互通立交-旺清门收费站1,0,,41.7009,125.286,K92+150,0,,,,,,,,,,,,,0,12543927,,0,0,21,实体门架,在用,,,辽宁省,省界收费门架,省界出口
,S001021001000710020,旺清门南匝道互通立交-旺清门收费站2,0,,41.702,125.299,K93+196,0,,,,,,,,,,,,,0,17318492,,0,0,21,实体门架,在用,,,辽宁省,省界收费门架,省界出口
,S001021001000720020,旺清门收费站-旺清门北匝道互通立交2,0,,41.7026,125.3,K93+246,0,,,,,,,,,,,,,0,17318490,,0,0,21,实体门架,在用,,,辽宁省,省界收费门架,省界入口
,S001021001000720010,旺清门收费站-旺清门北匝道互通立交1,0,,41.7051,125.309,K94+040,0,,,,,,,,,,,,,0,17318490,,0,0,21,实体门架,在用,,,辽宁省,省界收费门架,省界入口
,G000715001000210020,韩家营-兴和南2,0,,40.6769,114.035,K267+000,0,,,,,,,,,,,,,0,77974569,,0,0,15,实体门架,在用,,,内蒙古自治区,省界收费门架,省界入口
,G000715001000210010,韩家营-兴和南1,0,,40.677,114.043,K266+350,0,,,,,,,,,,,,,0,77974572,,0,0,15,实体门架,在用,,,内蒙古自治区,省界收费门架,省界入口
,G000715001000220020,兴和南-韩家营2,0,,40.6767,114.032,K267+050,0,,,,,,,,,,,,,0,77974571,,0,0,15,实体门架,在用,,,内蒙古自治区,省界收费门架,省界出口
,G000715001000220010,兴和南-韩家营1,0,,40.6766,114.028,K267+550,0,,,,,,,,,,,,,0,77974571,,0,0,15,实体门架,在用,,,内蒙古自治区,省界收费门架,省界出口
,S370113002000910020,暖泉古镇互通-冀晋界2,0,,39.8119,114.404,K183+981,0,,,,,,,,,,,,,0,110061880,,0,0,13,实体门架,在用,,,河北省,省界收费门架,省界出口
,S370113002001020010,冀晋界-暖泉古镇互通1,0,,39.8116,114.404,K184+011,0,,,,,,,,,,,,,0,109991598,,0,0,13,实体门架,在用,,,河北省,省界收费门架,省界入口
,G012113001000910010,津冀省界-玉田城西收费站1,0,,39.923,117.537,K101+670,0,,,,,,,,,,,,,0,110686584,,0,0,13,实体门架,在用,,,河北省,省界收费门架,省界入口
,G012113001000910020,津冀省界-玉田城西收费站2,0,,39.9261,117.534,K101+200,0,,,,,,,,,,,,,0,110686584,,0,0,13,实体门架,在用,,,河北省,省界收费门架,省界入口
,G012113001001020020,玉田城西收费站-津冀省界2,0,,39.9224,117.538,K101+700,0,,,,,,,,,,,,,0,110686592,,0,0,13,实体门架,在用,,,河北省,省界收费门架,省界出口
,G012113001001020010,玉田城西收费站-津冀省界1,0,,39.9191,117.543,K102+200,0,,,,,,,,,,,,,0,110686592,,0,0,13,实体门架,在用,,,河北省,省界收费门架,省界出口
,G000311001000720010,北京礼贤站-北京佃子站1,0,,39.5502,116.492,K27+200,0,,,,,,,,,,,,,0,80420805,,0,0,11,实体门架,在用,,,北京市,省界收费门架,省界入口
,S002241004005320020,南林豫晋界_红旗渠西向东第二排,0,,36.246,113.798,K174+919,0,,,,,,,,,,,,,0,87822491,,0,0,41,实体门架,在用,,,河南省,省界收费门架,省界入口
,S002241004005320010,南林豫晋界_红旗渠西向东第一排,0,,36.2511,113.797,K175+400,0,,,,,,,,,,,,,0,70757093,,0,0,41,实体门架,在用,,,河南省,省界收费门架,省界入口
,G000311001000610020,北京佃子站-北京礼贤站2,0,,39.5516,116.491,K27+145,0,,,,,,,,,,,,,0,61405077,,0,0,11,实体门架,在用,,,北京市,省界收费门架,省界出口
,G000311001000610010,北京佃子站-北京礼贤站1,0,,39.5552,116.49,K26+645,0,,,,,,,,,,,,,0,112139050,,0,0,11,实体门架,在用,,,北京市,省界收费门架,省界出口
,S006713001000510010,故城主线站-郑口站1,0,,37.3721,116.039,K1+570,0,,,,,,,,,,,,,0,605117805,,0,0,13,实体门架,在用,,,河北省,省界收费门架,省界入口
,S006713001000620010,郑口站-故城主线站1,0,,37.3729,116.039,K1+600,0,,,,,,,,,,,,,0,70311507,,0,0,13,实体门架,在用,,,河北省,省界收费门架,省界出口
,S002241004005310020,红旗渠_南林豫晋界东向西第二排,0,,36.2429,113.8,K174+514,0,,,,,,,,,,,,,0,40291405,,0,0,41,实体门架,在用,,,河南省,省界收费门架,省界出口
,S002241004005310010,红旗渠_南林豫晋界东向西第一排,0,,36.2397,113.805,K174+004,0,,,,,,,,,,,,,0,40291405,,0,0,41,实体门架,在用,,,河南省,省界收费门架,省界出口
,G000313001000220010,九州互通-京冀省界1,0,,39.5438,116.494,K27+940,0,,,,,,,,,,,,,0,80420804,,0,0,13,实体门架,在用,,,河北省,省界收费门架,省界出口
,G000762001000210010,马鬃山北站-明水互通立交1,0,,41.8562,97.0482,K1901+400,0,,,,,,,,,,,,,0,110004498,,0,0,62,实体门架,在用,,,甘肃省,省界收费门架,省界出口
,G000662001000110010,甘宁省界-刘寨柯匝道站1,0,,36.9453,105.166,K1414+670,0,,,,,,,,,,,,,0,71295708,,0,0,62,实体门架,在用,,,甘肃省,省界收费门架,省界入口
,G000762001000120010,甘蒙省界-马鬃山北站1,0,,41.8617,97.0854,K1898+350,0,,,,,,,,,,,,,0,62680105,,0,0,62,实体门架,在用,,,甘肃省,省界收费门架,省界入口
,G201262001000110020,甘宁省界-景泰站1,0,,37.4062,104.273,K324+200,0,,,,,,,,,,,,,0,14718461,,0,0,62,实体门架,在用,,,甘肃省,省界收费门架,省界入口
,G000762001000110010,马鬃山南站-甘蒙省界1,0,,41.8613,97.0846,K1898+400,0,,,,,,,,,,,,,0,62680113,,0,0,62,实体门架,在用,,,甘肃省,省界收费门架,省界出口
,G000662003000820020,甘青省界-海石湾匝道站1,0,,36.3023,102.929,K1682+200,0,,,,,,,,,,,,,0,520128674,,0,0,62,实体门架,在用,,,甘肃省,省界收费门架,省界入口
,G002262001000110020,甘陕省界-太白匝道站1,0,,36.1169,108.694,K1267+240,0,,,,,,,,,,,,,0,14270834,,0,0,62,实体门架,在用,,,甘肃省,省界收费门架,省界入口
,G002262001000120020,太白匝道站-甘陕省界1,0,,36.1107,108.663,K1270+700,0,,,,,,,,,,,,,0,110295266,,0,0,62,实体门架,在用,,,甘肃省,省界收费门架,省界出口
,G000662001000120010,刘寨柯匝道站-甘宁省界1,0,,36.9453,105.165,K1414+700,0,,,,,,,,,,,,,0,70462966,,0,0,62,实体门架,在用,,,甘肃省,省界收费门架,省界出口
,G002262001000110010,甘陕省界-太白匝道站1,0,,36.1157,108.699,K1266+810,0,,,,,,,,,,,,,0,14270840,,0,0,62,实体门架,在用,,,甘肃省,省界收费门架,省界入口
,G002262001000120010,太白匝道站-甘陕省界1,0,,36.1159,108.671,K1269+750,0,,,,,,,,,,,,,0,14270796,,0,0,62,实体门架,在用,,,甘肃省,省界收费门架,省界出口
,G201262001000110010,甘宁省界-景泰站1,0,,37.4098,104.276,K323+700,0,,,,,,,,,,,,,0,14718461,,0,0,62,实体门架,在用,,,甘肃省,省界收费门架,省界入口
,G000662003000820010,甘青省界-海石湾匝道站1,0,,36.3023,102.932,K1681+940,0,,,,,,,,,,,,,0,607128253,,0,0,62,实体门架,在用,,,甘肃省,省界收费门架,省界入口
,G201262001000120010,景泰站-甘宁省界1,0,,37.4059,104.273,K324+700,0,,,,,,,,,,,,,0,30272107,,0,0,62,实体门架,在用,,,甘肃省,省界收费门架,省界出口
,G000762001000220010,明水互通立交-马鬃山南站1,0,,41.8559,97.0483,K1901+350,0,,,,,,,,,,,,,0,110004497,,0,0,62,实体门架,在用,,,甘肃省,省界收费门架,省界入口
,G201262001000120020,景泰站-甘宁省界1,0,,37.4021,104.271,K325+200,0,,,,,,,,,,,,,0,30272107,,0,0,62,实体门架,在用,,,甘肃省,省界收费门架,省界出口
,G000313001001620010,冀津省界-东安庄收费站1,0,,39.2884,116.87,K80+660,0,,,,,,,,,,,,,0,78306632,,0,0,13,实体门架,在用,,,河北省,省界收费门架,省界入口
,S007213001000210020,景县南枢纽互通-庙镇收费站（冀鲁界）2,0,,37.5226,116.227,K80+870,0,,,,,,,,,,,,,0,509120526,,0,0,13,实体门架,在用,,,河北省,省界收费门架,省界出口
,S007213001000210010,景县南枢纽互通-庙镇收费站（冀鲁界）1,0,,37.5248,116.222,K80+370,0,,,,,,,,,,,,,0,505120210,,0,0,13,实体门架,在用,,,河北省,省界收费门架,省界出口
,G000112001000120020,京哈省界(河北)新安镇收费站-新钟收费站匝道互通2,0,,39.7333,117.568,K99+350,0,,,,,,,,,,,,,0,12833671,,0,0,12,实体门架,在用,,,天津市,省界收费门架,省界入口
,G000112001000110010,新钟收费站匝道互通-京哈省界(河北)新安镇收费站1,0,,39.7326,117.564,K99+150,0,,,,,,,,,,,,,0,7000961,,0,0,12,实体门架,在用,,,天津市,省界收费门架,省界出口
,G000313001000110010,京冀省界-九州互通1,0,,39.5451,116.493,K27+910,0,,,,,,,,,,,,,0,80420800,,0,0,13,实体门架,在用,,,河北省,省界收费门架,省界入口
,G001621001000120010,黑水主线收费站-黑水互通立交1,0,,42.0964,119.411,K499+035,0,,,,,,,,,,,,,0,49219798,,0,0,21,实体门架,在用,,,辽宁省,省界收费门架,省界入口
,G001621001000110020,黑水互通立交-黑水主线收费站2,0,,42.0961,119.412,K498+950,0,,,,,,,,,,,,,0,5659379,,0,0,21,实体门架,在用,,,辽宁省,省界收费门架,省界出口
,G001814011002020010,二道梁站至凤凰城站1,0,,39.7967,112.041,K1268+180,0,,,,,,,,,,,,,0,33955048,,0,0,14,实体门架,在用,,,山西省,省界收费门架,省界入口
,G001814011000910010,凤凰城站至二道梁站1,0,,39.7977,112.048,K1267+630,0,,,,,,,,,,,,,0,33955052,,0,0,14,实体门架,在用,,,山西省,省界收费门架,省界出口
,G002513001000110020,冀辽省界-杨树岭收费站2,0,,40.9949,118.89,K688+670,0,,,,,,,,,,,,,0,85711893,,0,0,13,实体门架,在用,,,河北省,省界收费门架,省界入口
,G002513001000110010,冀辽省界-杨树岭收费站1,0,,40.9959,118.893,K688+170,0,,,,,,,,,,,,,0,85711893,,0,0,13,实体门架,在用,,,河北省,省界收费门架,省界入口
,G002513001000220020,杨树岭收费站-冀辽省界2,0,,40.9933,118.887,K688+700,0,,,,,,,,,,,,,0,40621721,,0,0,13,实体门架,在用,,,河北省,省界收费门架,省界出口
,G004513004003620010,大名主线站-大名收费站1,0,,36.2453,115.126,K1757+830,0,,,,,,,,,,,,,0,2573655,,0,0,13,实体门架,在用,,,河北省,省界收费门架,省界入口
,G004513004003620020,大名主线站-大名收费站2,0,,36.2407,115.127,K1758+330,0,,,,,,,,,,,,,0,2573655,,0,0,13,实体门架,在用,,,河北省,省界收费门架,省界入口
,G000112001000610030,京哈省界(北京)牛道口收费站-宝平收费站匝道互通3,0,,39.7776,117.269,K71+950,0,,,,,,,,,,,,,0,7570665,,0,0,12,实体门架,在用,,,天津市,省界收费门架,省界入口
,G000112001000610010,京哈省界(北京)牛道口收费站-宝平收费站匝道互通1,0,,39.7782,117.263,K71+450,0,,,,,,,,,,,,,0,7570665,,0,0,12,实体门架,在用,,,天津市,省界收费门架,省界入口
,G002513001000220010,杨树岭收费站-冀辽省界1,0,,40.9909,118.883,K689+200,0,,,,,,,,,,,,,0,40621721,,0,0,13,实体门架,在用,,,河北省,省界收费门架,省界出口
,G000112001000620040,宝平收费站匝道互通-京哈省界(北京)牛道口收费站4,0,,39.7768,117.274,K72+400,0,,,,,,,,,,,,,0,87938866,,0,0,12,实体门架,在用,,,天津市,省界收费门架,省界出口
,G000112001000620020,宝平收费站匝道互通-京哈省界(北京)牛道口收费站2,0,,39.7754,117.28,K72+910,0,,,,,,,,,,,,,0,7570667,,0,0,12,实体门架,在用,,,天津市,省界收费门架,省界出口
,G004513004003510020,大名收费站-大名主线站2,0,,36.2461,115.125,K1757+800,0,,,,,,,,,,,,,0,2573712,,0,0,13,实体门架,在用,,,河北省,省界收费门架,省界出口
,G004513004003510010,大名收费站-大名主线站1,0,,36.2503,115.124,K1757+300,0,,,,,,,,,,,,,0,88591699,,0,0,13,实体门架,在用,,,河北省,省界收费门架,省界出口
,G002513006000420010,冀津界-田庄收费站1,0,,39.3971,117.95,K1000+550,0,,,,,,,,,,,,,0,620107150,,0,0,13,实体门架,在用,,,河北省,省界收费门架,省界入口
,G002513006000420020,冀津界-田庄收费站2,0,,39.3944,117.945,K1001+053,0,,,,,,,,,,,,,0,606107667,,0,0,13,实体门架,在用,,,河北省,省界收费门架,省界入口
,G002513006000310020,田庄收费站-冀津界2,0,,39.3975,117.951,K1000+520,0,,,,,,,,,,,,,0,605106987,,0,0,13,实体门架,在用,,,河北省,省界收费门架,省界出口
,G002513006000310010,田庄收费站-冀津界1,0,,39.4002,117.956,K1000+020,0,,,,,,,,,,,,,0,601107249,,0,0,13,实体门架,在用,,,河北省,省界收费门架,省界出口
,S007614055001220010,虹梯关站至虹霓峡站1,0,,36.2455,113.66,K3+700,0,,,,,,,,,,,,,0,58065514,,0,0,14,实体门架,在用,,,山西省,省界收费门架,省界入口
,S007614055001110010,虹霓峡站至虹梯关站1,0,,36.2451,113.659,K3+730,0,,,,,,,,,,,,,0,90523660,,0,0,14,实体门架,在用,,,山西省,省界收费门架,省界出口
,G009513004000110020,密涿高速公路万庄京冀省界-万庄收费站2,0,,39.5904,116.596,K224+442,0,,,,,,,,,,,,,0,46077363,,0,0,13,实体门架,在用,,,河北省,省界收费门架,省界入口
,G009513004000110010,密涿高速公路万庄京冀省界-万庄收费站1,0,,39.5929,116.6,K223+972,0,,,,,,,,,,,,,0,46077450,,0,0,13,实体门架,在用,,,河北省,省界收费门架,省界入口
,S000112001000120020,津蓟省界(北京)莲花岭站收费站-田家峪收费站匝道互通2,0,,40.0834,117.238,K114+360,0,,,,,,,,,,,,,0,601078603,,0,0,12,实体门架,在用,,,天津市,省界收费门架,省界入口
,G001121001000110020,拐磨子收费站-西古城子互通立交2,0,,41.4918,125.473,K957+200,0,,,,,,,,,,,,,0,78366055,,0,0,21,实体门架,在用,,,辽宁省,省界收费门架,省界入口
,G001121001000110010,拐磨子收费站-西古城子互通立交1,0,,41.497,125.478,K956+488,0,,,,,,,,,,,,,0,54992887,,0,0,21,实体门架,在用,,,辽宁省,省界收费门架,省界入口
,G001121001000120010,西古城子互通立交-拐磨子收费站1,0,,41.4852,125.469,K957+950,0,,,,,,,,,,,,,0,15253839,,0,0,21,实体门架,在用,,,辽宁省,省界收费门架,省界出口
,G001121001000120020,西古城子互通立交-拐磨子收费站2,0,,41.4807,125.466,K958+506,0,,,,,,,,,,,,,0,12671567,,0,0,21,实体门架,在用,,,辽宁省,省界收费门架,省界出口
,G004511002001510020,北京求贤站-北京榆垡南站2,0,,39.5011,116.294,K1351+300,0,,,,,,,,,,,,,0,15086913,,0,0,11,实体门架,在用,,,北京市,省界收费门架,省界出口
,G004511002001510010,北京求贤站-北京榆垡南站1,0,,39.5064,116.295,K1350+600,0,,,,,,,,,,,,,0,460061,,0,0,11,实体门架,在用,,,北京市,省界收费门架,省界出口
,G000514065001110010,河津西至龙门大桥1,0,,35.5934,110.636,K840+600,0,,,,,,,,,,,,,0,7667453,,0,0,14,实体门架,在用,,,山西省,省界收费门架,省界出口
,G002214054000110010,东阳关至左黎_长邯互通1,0,,36.5318,113.42,K746+360,0,,,,,,,,,,,,,0,43425643,,0,0,14,实体门架,在用,,,山西省,省界收费门架,省界入口
,G001621001000110010,黑水互通立交-黑水主线收费站1,0,,42.0937,119.417,K498+450,0,,,,,,,,,,,,,0,5659370,,0,0,21,实体门架,在用,,,辽宁省,省界收费门架,省界出口
,G002214054000220010,左黎_长邯互通至东阳关1,0,,36.5319,113.419,K746+390,0,,,,,,,,,,,,,0,43425654,,0,0,14,实体门架,在用,,,山西省,省界收费门架,省界出口
,G000337001000110030,京台鲁冀-德州北枢纽门架,0,,37.5078,116.395,K299+480,0,,,,,,,,,,,,,0,15321070,,0,0,37,实体门架,备用,,,山东省,省界收费门架,省界入口
,G000337001000110010,京台鲁冀-德州北枢纽门架,0,,37.5098,116.395,K299+300,0,,,,,,,,,,,,,0,109711006,,0,0,37,实体门架,备用,,,山东省,省界收费门架,省界入口
,G000337001001220020,德州北枢纽-京台鲁冀门架,0,,37.5069,116.395,K299+530,0,,,,,,,,,,,,,0,109710978,,0,0,37,实体门架,备用,,,山东省,省界收费门架,省界出口
,G000113002004620020,香河北匝道收费站-京冀界2,0,,39.7995,116.982,K45+750,0,,,,,,,,,,,,,0,245194,,0,0,13,实体门架,在用,,,河北省,省界收费门架,省界出口
,G000113002004620010,香河北匝道收费站-京冀界1,0,,39.799,116.986,K46+250,0,,,,,,,,,,,,,0,245194,,0,0,13,实体门架,在用,,,河北省,省界收费门架,省界出口
,G000113002004220020,冀津界-香河东匝道收费站2,0,,39.7861,117.117,K57+750,0,,,,,,,,,,,,,0,41816514,,0,0,13,实体门架,在用,,,河北省,省界收费门架,省界入口
,G000113002004220010,冀津界-香河东匝道收费站1,0,,39.7857,117.123,K58+250,0,,,,,,,,,,,,,0,41816514,,0,0,13,实体门架,在用,,,河北省,省界收费门架,省界入口
,G000122003001510010,拉林河收费站至蔡家沟互通门架1,0,,45.1343,126.131,K1135+424,0,,,,,,,,,,,,,0,5917315,,0,0,22,实体门架,在用,,,吉林省,省界收费门架,省界入口
,G251614048000110010,山西和顺站至和顺东站1,0,,37.1241,113.679,K505+835,0,,,,,,,,,,,,,0,510094375,,0,0,14,实体门架,在用,,,山西省,省界收费门架,省界入口
,G251614048000220010,和顺东站至山西和顺站1,0,,37.1239,113.679,K505+865,0,,,,,,,,,,,,,0,58337067,,0,0,14,实体门架,在用,,,山西省,省界收费门架,省界出口
,S004012001001310030,省界虚拟站收费站-大王古收费站匝道互通3,0,,39.508,116.903,K53+200,0,,,,,,,,,,,,,0,42704286,,0,0,12,实体门架,在用,,,天津市,省界收费门架,省界入口
,S004012001001310010,省界虚拟站收费站-大王古收费站匝道互通1,0,,39.5122,116.901,K52+700,0,,,,,,,,,,,,,0,42704286,,0,0,12,实体门架,在用,,,天津市,省界收费门架,省界入口
,G000611001002120020,北京康庄市界站-北京康庄站2,0,,40.359,115.89,K67+250,0,,,,,,,,,,,,,0,12512168,,0,0,11,实体门架,在用,,,北京市,省界收费门架,省界入口
,G000611001002120010,北京康庄市界站-北京康庄站1,0,,40.3589,115.886,K67+750,0,,,,,,,,,,,,,0,77352075,,0,0,11,实体门架,在用,,,北京市,省界收费门架,省界入口
,G351141004005110010,豫鲁省界_长垣北站东向西第一排,0,,35.3238,114.893,K70+020,0,,,,,,,,,,,,,0,601063544,,0,0,41,实体门架,在用,,,河南省,省界收费门架,省界入口
,S004012001001320040,大王古收费站匝道互通-省界虚拟站收费站4,0,,39.506,116.905,K53+400,0,,,,,,,,,,,,,0,42628590,,0,0,12,实体门架,在用,,,天津市,省界收费门架,省界出口
,S004012001001320020,大王古收费站匝道互通-省界虚拟站收费站2,0,,39.5021,116.907,K53+900,0,,,,,,,,,,,,,0,42628590,,0,0,12,实体门架,在用,,,天津市,省界收费门架,省界出口
,G351141004005120020,长垣北站_豫鲁省界西向东第二排,0,,35.3197,114.886,K70+718,0,,,,,,,,,,,,,0,607058295,,0,0,41,实体门架,在用,,,河南省,省界收费门架,省界出口
,G351141004005120010,长垣北站_豫鲁省界西向东第一排,0,,35.3171,114.881,K71+260,0,,,,,,,,,,,,,0,607058295,,0,0,41,实体门架,在用,,,河南省,省界收费门架,省界出口
,G002014042000820010,军渡站至柳林西1,0,,37.4204,110.77,K1042+710,0,,,,,,,,,,,,,0,6196099,,0,0,14,实体门架,在用,,,山西省,省界收费门架,省界入口
,G002014042000710010,柳林西至军渡站1,0,,37.4201,110.771,K1042+680,0,,,,,,,,,,,,,0,6196117,,0,0,14,实体门架,在用,,,山西省,省界收费门架,省界出口
,G000611001002010020,北京康庄站-北京康庄市界站2,0,,40.359,115.891,K67+220,0,,,,,,,,,,,,,0,370014,,0,0,11,实体门架,在用,,,北京市,省界收费门架,省界出口
,G000611001002010010,北京康庄站-北京康庄市界站1,0,,40.3578,115.9,K66+550,0,,,,,,,,,,,,,0,370341,,0,0,11,实体门架,在用,,,北京市,省界收费门架,省界出口
,G002521002002310020,三十家子东互通立交-三十家子收费站2,0,,40.9989,119.077,K670+668,0,,,,,,,,,,,,,0,2995794,,0,0,21,实体门架,在用,,,辽宁省,省界收费门架,省界出口
,G000441001005110010,京港澳豫冀省界_柏庄互通第一排,0,,36.221,114.398,K484+580,0,,,,,,,,,,,,,0,2616500,,0,0,41,实体门架,在用,,,河南省,省界收费门架,省界入口
,G000441001005120010,柏庄互通_京港澳豫冀省界第一排,0,,36.2195,114.399,K484+650,0,,,,,,,,,,,,,0,2616492,,0,0,41,实体门架,在用,,,河南省,省界收费门架,省界出口
,G000513001000220010,涞水新城收费站-京冀界1,0,,39.5098,115.739,K66+800,0,,,,,,,,,,,,,0,30261204,,0,0,13,实体门架,在用,,,河北省,省界收费门架,省界出口
,G000513001000110010,京冀界-涞水新城收费站1,0,,39.5105,115.74,K66+770,0,,,,,,,,,,,,,0,70077153,,0,0,13,实体门架,在用,,,河北省,省界收费门架,省界入口
,G011112002000720020,秦滨省界(河北)滨海南收费站-南港站匝道互通2,0,,38.7027,117.566,K240+800,0,,,,,,,,,,,,,0,85589646,,0,0,12,实体门架,在用,,,天津市,省界收费门架,省界入口
,G011112002000720040,秦滨省界(河北)滨海南收费站-南港站匝道互通4,0,,38.7,117.566,K241+100,0,,,,,,,,,,,,,0,85589646,,0,0,12,实体门架,在用,,,天津市,省界收费门架,省界入口
,G011112001000110030,秦滨省界(河北)涧河收费站-滨保秦滨(北)互通(大神堂)3,0,,39.2139,117.951,K170+600,0,,,,,,,,,,,,,0,71508794,,0,0,12,实体门架,在用,,,天津市,省界收费门架,省界入口
,G011112001000110010,秦滨省界(河北)涧河收费站-滨保秦滨(北)互通(大神堂)1,0,,39.2153,117.957,K170+100,0,,,,,,,,,,,,,0,71508794,,0,0,12,实体门架,在用,,,天津市,省界收费门架,省界入口
,G001812003000820040,荣乌省界(河北)翟庄子收费站-郭庄子收费站匝道互通4,0,,38.6242,117.233,K694+120,0,,,,,,,,,,,,,0,17574788,,0,0,12,实体门架,在用,,,天津市,省界收费门架,省界入口
,G011112002000710030,南港站匝道互通-秦滨省界(河北)滨海南收费站3,0,,38.7047,117.566,K240+700,0,,,,,,,,,,,,,0,79952400,,0,0,12,实体门架,在用,,,天津市,省界收费门架,省界出口
,G011112002000710010,南港站匝道互通-秦滨省界(河北)滨海南收费站1,0,,38.7072,117.567,K240+400,0,,,,,,,,,,,,,0,79952399,,0,0,12,实体门架,在用,,,天津市,省界收费门架,省界出口
,S000712001000310010,荣乌津保互通(王庆坨)-荣乌省界(河北)津冀站收费站1,0,,39.1707,116.9,K773+600,0,,,,,,,,,,,,,0,39250571,,0,0,12,实体门架,在用,,,天津市,省界收费门架,省界出口
,G001812003000810030,郭庄子收费站匝道互通-荣乌省界(河北)翟庄子收费站3,0,,38.6291,117.231,K694+700,0,,,,,,,,,,,,,0,6959781,,0,0,12,实体门架,在用,,,天津市,省界收费门架,省界出口
,S000712001000320040,荣乌省界(河北)津冀站收费站-荣乌津保互通(王庆坨)4,0,,39.1683,116.893,K774+300,0,,,,,,,,,,,,,0,17574848,,0,0,12,实体门架,在用,,,天津市,省界收费门架,省界入口
,S000712001000320020,荣乌省界(河北)津冀站收费站-荣乌津保互通(王庆坨)2,0,,39.1661,116.887,K774+800,0,,,,,,,,,,,,,0,12716728,,0,0,12,实体门架,在用,,,天津市,省界收费门架,省界入口
,G251613002001510020,路罗收费站-冀晋省界2,0,,37.1503,113.869,K483+020,0,,,,,,,,,,,,,0,57830133,,0,0,13,实体门架,在用,,,河北省,省界收费门架,省界出口
,G004522001000110020,班德互通至风华收费站门架2,0,,45.4164,124.97,K156+738,0,,,,,,,,,,,,,0,108993405,,0,0,22,实体门架,在用,,,吉林省,省界收费门架,省界出口
,S000712001000310030,荣乌津保互通(王庆坨)-荣乌省界(河北)津冀站收费站3,0,,39.169,116.895,K774+100,0,,,,,,,,,,,,,0,39250571,,0,0,12,实体门架,在用,,,天津市,省界收费门架,省界出口
,G032141001005320020,德上豫鲁南省界_濮范枢纽南向北第二排,0,,35.8061,115.564,K225+190,0,,,,,,,,,,,,,0,609129284,,0,0,41,实体门架,在用,,,河南省,省界收费门架,省界入口
,G032141001005320010,德上豫鲁南省界_濮范枢纽南向北第一排,0,,35.8024,115.564,K225+610,0,,,,,,,,,,,,,0,609129284,,0,0,41,实体门架,在用,,,河南省,省界收费门架,省界入口
,G032141001005310020,濮范枢纽_德上豫鲁南省界北向南第二排,0,,35.8073,115.564,K225+050,0,,,,,,,,,,,,,0,32729334,,0,0,41,实体门架,在用,,,河南省,省界收费门架,省界出口
,G032141001005310010,濮范枢纽_德上豫鲁南省界北向南第一排,0,,35.8122,115.564,K224+550,0,,,,,,,,,,,,,0,32729334,,0,0,41,实体门架,在用,,,河南省,省界收费门架,省界出口
,G032141001005120020,范县东_德上豫鲁北省界南向北第二排,0,,35.8667,115.581,K218+170,0,,,,,,,,,,,,,0,18662222,,0,0,41,实体门架,在用,,,河南省,省界收费门架,省界出口
,G032141001005120010,范县东_德上豫鲁北省界南向北第一排,0,,35.8625,115.58,K218+670,0,,,,,,,,,,,,,0,18662222,,0,0,41,实体门架,在用,,,河南省,省界收费门架,省界出口
,G032141001005110020,德上豫鲁北省界_范县东北向南第二排,0,,35.8686,115.582,K218+000,0,,,,,,,,,,,,,0,38234993,,0,0,41,实体门架,在用,,,河南省,省界收费门架,省界入口
,G032141001005110010,德上豫鲁北省界_范县东北向南第一排,0,,35.8738,115.583,K217+400,0,,,,,,,,,,,,,0,38234993,,0,0,41,实体门架,在用,,,河南省,省界收费门架,省界入口
,S002241001005110010,南林豫鲁界_南乐东东向西第一排,0,,36.0641,115.4,K7+180,0,,,,,,,,,,,,,0,76806081,,0,0,41,实体门架,在用,,,河南省,省界收费门架,省界入口
,S002241001005110020,南林豫鲁界_南乐东东向西第二排,0,,36.0628,115.395,K7+600,0,,,,,,,,,,,,,0,76806081,,0,0,41,实体门架,在用,,,河南省,省界收费门架,省界入口
,S002241001005120010,南乐东_南林豫鲁界西向东第一排,0,,36.0609,115.388,K8+250,0,,,,,,,,,,,,,0,76806084,,0,0,41,实体门架,在用,,,河南省,省界收费门架,省界出口
,S004614018000220010,五台山景区站至石咀站2,0,,38.9039,113.739,K272+950,0,,,,,,,,,,,,,0,16801097,,0,0,14,实体门架,在用,,,山西省,省界收费门架,省界出口
,G004522001000110010,班德互通至风华收费站门架1,0,,45.4212,124.971,K156+230,0,,,,,,,,,,,,,0,15321169,,0,0,22,实体门架,在用,,,吉林省,省界收费门架,省界出口
,G004541001005110020,大广豫冀省界_南乐北向南第二排,0,,36.0997,115.139,K1774+720,0,,,,,,,,,,,,,0,2625891,,0,0,41,实体门架,在用,,,河南省,省界收费门架,省界入口
,G004541001005110010,大广豫冀省界_南乐北向南第一排,0,,36.1043,115.139,K1774+240,0,,,,,,,,,,,,,0,2625891,,0,0,41,实体门架,在用,,,河南省,省界收费门架,省界入口
,G004541001005120020,南乐_大广豫冀省界南向北第二排,0,,36.0977,115.139,K1774+880,0,,,,,,,,,,,,,0,2625897,,0,0,41,实体门架,在用,,,河南省,省界收费门架,省界出口
,G004541001005120010,南乐_大广豫冀省界南向北第一排,0,,36.0926,115.138,K1775+470,0,,,,,,,,,,,,,0,2625895,,0,0,41,实体门架,在用,,,河南省,省界收费门架,省界出口
,G000211001000620020,北京京沪市界站-北京京沪廊坊站2,0,,39.5793,116.794,K40+350,0,,,,,,,,,,,,,0,7723888,,0,0,11,实体门架,在用,,,北京市,省界收费门架,省界入口
,G000211001000510020,北京京沪廊坊站-北京京沪市界站2,0,,39.5798,116.793,K40+300,0,,,,,,,,,,,,,0,12716795,,0,0,11,实体门架,在用,,,北京市,省界收费门架,省界出口
,G002213005000220020,馆陶收费站-冀鲁省界2,0,,36.5592,115.298,K551+500,0,,,,,,,,,,,,,0,2656385,,0,0,13,实体门架,在用,,,河北省,省界收费门架,省界出口
,G121221001000620020,草市主线收费站-草市互通立交2,0,,42.2911,125.242,K157+480,0,,,,,,,,,,,,,0,55096325,,0,0,21,实体门架,在用,,,辽宁省,省界收费门架,省界入口
,G121221001000620010,草市主线收费站-草市互通立交1,0,,42.2931,125.248,K158+000,0,,,,,,,,,,,,,0,55096325,,0,0,21,实体门架,在用,,,辽宁省,省界收费门架,省界入口
,G121221001000610020,草市互通立交-草市主线收费站2,0,,42.3014,125.271,K160+230,0,,,,,,,,,,,,,0,70039958,,0,0,21,实体门架,在用,,,辽宁省,省界收费门架,省界出口
,G121221001000610010,草市互通立交-草市主线收费站1,0,,42.2985,125.259,K159+300,0,,,,,,,,,,,,,0,60942617,,0,0,21,实体门架,在用,,,辽宁省,省界收费门架,省界出口
,G005941001005110010,三淅豫晋界_连霍三淅互通第一排,0,,34.6733,110.954,K875+470,0,,,,,,,,,,,,,0,48277603,,0,0,41,实体门架,在用,,,河南省,省界收费门架,省界入口
,G002521002002320010,三十家子收费站-三十家子东互通立交1,0,,40.998,119.069,K671+350,0,,,,,,,,,,,,,0,12571332,,0,0,21,实体门架,在用,,,辽宁省,省界收费门架,省界入口
,G251121001000120010,阿尔乡收费站-章古台互通立交1,0,,42.8187,122.455,K100+269,0,,,,,,,,,,,,,0,14753272,,0,0,21,实体门架,在用,,,辽宁省,省界收费门架,省界入口
,G002521002002320020,三十家子收费站-三十家子东互通立交2,0,,40.9982,119.063,K671+815,0,,,,,,,,,,,,,0,2995795,,0,0,21,实体门架,在用,,,辽宁省,省界收费门架,省界入口
,G251121001000120020,阿尔乡收费站-章古台互通立交2,0,,42.8215,122.453,K100+669,0,,,,,,,,,,,,,0,14753272,,0,0,21,实体门架,在用,,,辽宁省,省界收费门架,省界入口
,S003012001001710030,高村收费站匝道互通-牛镇收费站匝道互通3,0,,39.6269,116.848,K36+200,0,,,,,,,,,,,,,0,19235996,,0,0,12,实体门架,在用,,,天津市,省界收费门架,省界入口
,S003012001001710010,高村收费站匝道互通-牛镇收费站匝道互通1,0,,39.6283,116.843,K35+700,0,,,,,,,,,,,,,0,283673,,0,0,12,实体门架,在用,,,天津市,省界收费门架,省界入口
,G002521002002310010,三十家子东互通立交-三十家子收费站1,0,,41.0003,119.083,K670+150,0,,,,,,,,,,,,,0,2966419,,0,0,21,实体门架,在用,,,辽宁省,省界收费门架,省界出口
,S003012001001720040,牛镇收费站匝道互通-高村收费站匝道互通4,0,,39.6264,116.851,K36+400,0,,,,,,,,,,,,,0,19235971,,0,0,12,实体门架,在用,,,天津市,省界收费门架,省界出口
,S003012001001720020,牛镇收费站匝道互通-高村收费站匝道互通2,0,,39.6246,116.857,K36+900,0,,,,,,,,,,,,,0,19235971,,0,0,12,实体门架,在用,,,天津市,省界收费门架,省界出口
,G001813001000120010,黄骅北主线收费站-吕桥收费站1,0,,38.5465,117.28,K682+930,0,,,,,,,,,,,,,0,28211546,,0,0,13,实体门架,在用,,,河北省,省界收费门架,省界入口
,G001813001000120020,黄骅北主线收费站-吕桥收费站2,0,,38.5428,117.283,K682+380,0,,,,,,,,,,,,,0,28211546,,0,0,13,实体门架,在用,,,河北省,省界收费门架,省界入口
,G001813001000110010,吕桥收费站-黄骅北主线收费站1,0,,38.5423,117.283,K682+350,0,,,,,,,,,,,,,0,60278092,,0,0,13,实体门架,在用,,,河北省,省界收费门架,省界出口
,G001813001000110020,吕桥收费站-黄骅北主线收费站2,0,,38.5375,117.287,K681+850,0,,,,,,,,,,,,,0,28211551,,0,0,13,实体门架,在用,,,河北省,省界收费门架,省界出口
,G001813001000510010,海兴主线收费站-海兴收费站1,0,,38.1104,117.491,K628+600,0,,,,,,,,,,,,,0,508106514,,0,0,13,实体门架,在用,,,河北省,省界收费门架,省界入口
,G001813001000510020,海兴主线收费站-海兴收费站2,0,,38.1074,117.497,K627+920,0,,,,,,,,,,,,,0,608105823,,0,0,13,实体门架,在用,,,河北省,省界收费门架,省界入口
,G001813001000520020,海兴收费站-海兴主线收费站2,0,,38.1105,117.49,K628+630,0,,,,,,,,,,,,,0,109955791,,0,0,13,实体门架,在用,,,河北省,省界收费门架,省界出口
,G001813001000520010,海兴收费站-海兴主线收费站1,0,,38.1127,117.485,K629+130,0,,,,,,,,,,,,,0,109955791,,0,0,13,实体门架,在用,,,河北省,省界收费门架,省界出口
,G002512001000110030,长深省界(河北)宁河收费站-汉沽农场收费站匝道互通3,0,,39.3789,117.919,K1005+700,0,,,,,,,,,,,,,0,620107145,,0,0,12,实体门架,在用,,,天津市,省界收费门架,省界入口
,G002512001000110010,长深省界(河北)宁河收费站-汉沽农场收费站匝道互通1,0,,39.3817,117.924,K1005+200,0,,,,,,,,,,,,,0,610106681,,0,0,12,实体门架,在用,,,天津市,省界收费门架,省界入口
,G002512001000120040,汉沽农场收费站匝道互通-长深省界(河北)宁河收费站4,0,,39.3763,117.916,K1006+100,0,,,,,,,,,,,,,0,606107553,,0,0,12,实体门架,在用,,,天津市,省界收费门架,省界出口
,G004513003000110020,固安省界收费站-固安2,0,,39.4683,116.283,K1356+670,0,,,,,,,,,,,,,0,12650961,,0,0,13,实体门架,在用,,,河北省,省界收费门架,省界入口
,G004513003000110010,固安省界收费站-固安1,0,,39.4729,116.283,K1356+170,0,,,,,,,,,,,,,0,12650961,,0,0,13,实体门架,在用,,,河北省,省界收费门架,省界入口
,G002512001000120020,汉沽农场收费站匝道互通-长深省界(河北)宁河收费站2,0,,39.3734,117.911,K1006+600,0,,,,,,,,,,,,,0,506107819,,0,0,12,实体门架,在用,,,天津市,省界收费门架,省界出口
,G002213004000310010,涉县西收费站-冀晋涉县省界1,0,,36.517,113.593,K729+420,0,,,,,,,,,,,,,0,2510021,,0,0,13,实体门架,在用,,,河北省,省界收费门架,省界出口
,G000122001000110020,四平互通至五里坡收费站门架2,0,,43.0956,124.408,K852+15,0,,,,,,,,,,,,,0,44933435,,0,0,22,实体门架,在用,,,吉林省,省界收费门架,省界出口
,G000122001000110010,四平互通至五里坡收费站门架1,0,,43.0922,124.404,K851+233,0,,,,,,,,,,,,,0,44933435,,0,0,22,实体门架,在用,,,吉林省,省界收费门架,省界出口
,G004522001000120020,风华收费站至班德互通门架2,0,,45.4235,124.971,K156+2,0,,,,,,,,,,,,,0,61121733,,0,0,22,实体门架,在用,,,吉林省,省界收费门架,省界入口
,G004522001000120010,风华收费站至班德互通门架1,0,,45.4272,124.972,K155+498,0,,,,,,,,,,,,,0,61121733,,0,0,22,实体门架,在用,,,吉林省,省界收费门架,省界入口
,G000122001000120010,五里坡收费站至四平互通门架1,0,,43.0962,124.408,K852+50,0,,,,,,,,,,,,,0,501128015,,0,0,22,实体门架,在用,,,吉林省,省界收费门架,省界入口
,G000122001000120020,五里坡收费站至四平互通门架2,0,,43.0997,124.412,K852+588,0,,,,,,,,,,,,,0,501128015,,0,0,22,实体门架,在用,,,吉林省,省界收费门架,省界入口
,G000121001000120020,毛家店收费站-杏山枢纽立交2,0,,43.0846,124.396,K849+670,0,,,,,,,,,,,,,0,44933428,,0,0,21,实体门架,在用,,,辽宁省,省界收费门架,省界入口
,G032137004000910090,莘县古城-德商鲁豫北界门架,0,,35.9327,115.608,K210+310,0,,,,,,,,,,,,,0,17688146,,0,0,37,实体门架,在用,,,山东省,省界收费门架,省界出口
,G032137004001020100,德商鲁豫北界-莘县古城门架,0,,35.9259,115.608,K211+050,0,,,,,,,,,,,,,0,71238872,,0,0,37,实体门架,在用,,,山东省,省界收费门架,省界入口
,G032137004001020200,德商鲁豫北界-莘县古城门架,0,,35.9194,115.607,K212+770,0,,,,,,,,,,,,,0,17749853,,0,0,37,实体门架,在用,,,山东省,省界收费门架,省界入口
,G032137004000910190,莘县古城-德商鲁豫北界门架,0,,35.9264,115.608,K211+050,0,,,,,,,,,,,,,0,71238873,,0,0,37,实体门架,在用,,,山东省,省界收费门架,省界出口
,G001122001000110010,雁鸣湖互通至西沟主线收费站门架1,0,,43.6928,128.679,K533+010,0,,,,,,,,,,,,,0,70619431,,0,0,22,实体门架,在用,,,吉林省,省界收费门架,省界出口
,G001122001000120020,西沟主线收费站至雁鸣湖互通门架2,0,,43.6992,128.689,K531+965,0,,,,,,,,,,,,,0,608027954,,0,0,22,实体门架,在用,,,吉林省,省界收费门架,省界入口
,G001122001000120010,西沟主线收费站至雁鸣湖互通门架1,0,,43.7013,128.694,K531+470,0,,,,,,,,,,,,,0,608027954,,0,0,22,实体门架,在用,,,吉林省,省界收费门架,省界入口
,S002837001000320090,莘南鲁豫-张寨北门架,0,,36.083,115.49,K15+620,0,,,,,,,,,,,,,0,71971799,,0,0,37,实体门架,在用,,,山东省,省界收费门架,省界入口
,S002837001000320220,莘南鲁豫-张寨北门架,0,,36.0821,115.485,K16+090,0,,,,,,,,,,,,,0,71971799,,0,0,37,实体门架,在用,,,山东省,省界收费门架,省界入口
,G001122001000110020,雁鸣湖互通至西沟主线收费站门架2,0,,43.6957,128.683,K532+510,0,,,,,,,,,,,,,0,70619431,,0,0,22,实体门架,在用,,,吉林省,省界收费门架,省界出口
,S002837001000210210,张寨北-莘南鲁豫门架,0,,36.0833,115.49,K15+570,0,,,,,,,,,,,,,0,76806077,,0,0,37,实体门架,在用,,,山东省,省界收费门架,省界出口
,S002837001000210020,张寨北-莘南鲁豫门架,0,,36.0841,115.496,K15+100,0,,,,,,,,,,,,,0,71971795,,0,0,37,实体门架,在用,,,山东省,省界收费门架,省界出口
,S001421001000120020,安民互通立交-安民主线收费站2,0,,42.7715,124.931,K4+550,0,,,,,,,,,,,,,0,61713784,,0,0,21,实体门架,在用,,,辽宁省,省界收费门架,省界出口
,S001421001000120010,安民互通立交-安民主线收费站1,0,,42.7716,124.937,K4+050,0,,,,,,,,,,,,,0,49976022,,0,0,21,实体门架,在用,,,辽宁省,省界收费门架,省界出口
,S004614019000220010,杨家湾站至保德站1,0,,38.9714,110.998,K583+430,0,,,,,,,,,,,,,0,86428595,,0,0,14,实体门架,在用,,,山西省,省界收费门架,省界入口
,S004614019000110010,保德站至杨家湾站1,0,,38.9712,110.999,K583+400,0,,,,,,,,,,,,,0,86428596,,0,0,14,实体门架,在用,,,山西省,省界收费门架,省界出口
,G000121006001110020,万家收费站-东戴河互通立交2,0,,40.0624,119.844,K304+400,0,,,,,,,,,,,,,0,12570713,,0,0,21,实体门架,在用,,,辽宁省,省界收费门架,省界入口
,G000121006001110010,万家收费站-东戴河互通立交1,0,,40.0611,119.841,K303+900,0,,,,,,,,,,,,,0,12570713,,0,0,21,实体门架,在用,,,辽宁省,省界收费门架,省界入口
,G000121006001120020,东戴河互通立交-万家收费站2,0,,40.0657,119.853,K305+000,0,,,,,,,,,,,,,0,49662312,,0,0,21,实体门架,在用,,,辽宁省,省界收费门架,省界出口
,G000121001000110020,杏山枢纽立交-毛家店收费站2,0,,43.0783,124.39,K848+870,0,,,,,,,,,,,,,0,44933082,,0,0,21,实体门架,在用,,,辽宁省,省界收费门架,省界出口
,G000121001000110010,杏山枢纽立交-毛家店收费站1,0,,43.075,124.387,K848+450,0,,,,,,,,,,,,,0,4955941,,0,0,21,实体门架,在用,,,辽宁省,省界收费门架,省界出口
,S003614008000220010,广灵至蕉山主线1,0,,39.8102,114.367,K2+750,0,,,,,,,,,,,,,0,30412964,,0,0,14,实体门架,在用,,,山西省,省界收费门架,省界出口
,S003614008000110010,蕉山主线至广灵1,0,,39.8103,114.368,K2+700,0,,,,,,,,,,,,,0,30413010,,0,0,14,实体门架,在用,,,山西省,省界收费门架,省界入口
,G000413002004820010,冀豫省界-邺城收费站1,0,,36.2578,114.395,K476+036,0,,,,,,,,,,,,,0,506095171,,0,0,13,实体门架,在用,,,河北省,省界收费门架,省界入口
,G000413002004820020,冀豫省界-邺城收费站2,0,,36.2532,114.396,K476+536,0,,,,,,,,,,,,,0,600094446,,0,0,13,实体门架,在用,,,河北省,省界收费门架,省界入口
,G000413002004710020,邺城收费站-冀豫省界2,0,,36.2582,114.395,K476+000,0,,,,,,,,,,,,,0,504093775,,0,0,13,实体门架,在用,,,河北省,省界收费门架,省界出口
,G000413002004710010,邺城收费站-冀豫省界1,0,,36.2627,114.395,K475+500,0,,,,,,,,,,,,,0,604094478,,0,0,13,实体门架,在用,,,河北省,省界收费门架,省界出口
,S001421001000110020,安民主线收费站-安民互通立交2,0,,42.7717,124.938,K4+049,0,,,,,,,,,,,,,0,61713782,,0,0,21,实体门架,在用,,,辽宁省,省界收费门架,省界入口
,S001421001000110010,安民主线收费站-安民互通立交1,0,,42.7726,124.947,K3+300,0,,,,,,,,,,,,,0,42118386,,0,0,21,实体门架,在用,,,辽宁省,省界收费门架,省界入口
,S000137002001120220,冠县西-冠县门架,0,,36.5231,115.456,K130+830,0,,,,,,,,,,,,,0,16527913,,0,0,37,实体门架,在用,,,山东省,省界收费门架,省界入口
,S000137002001120110,冠县西-冠县门架,0,,36.5233,115.45,K131+440,0,,,,,,,,,,,,,0,16527913,,0,0,37,实体门架,在用,,,山东省,省界收费门架,省界入口
,S000137002001010210,冠县-冠县西门架,0,,36.5233,115.457,K130+890,0,,,,,,,,,,,,,0,2661329,,0,0,37,实体门架,在用,,,山东省,省界收费门架,省界出口
,S000137002001010100,冠县-冠县西门架,0,,36.5234,115.463,K130+388,0,,,,,,,,,,,,,0,2661329,,0,0,37,实体门架,在用,,,山东省,省界收费门架,省界出口
,S031063001000520020,道帏匝道收费站-道帷主线站2,0,,35.6577,102.623,K30+510,0,,,,,,,,,,,,,0,76724290,,0,0,63,实体门架,停用,,,青海省,省界收费门架,省界出口
,S031063001000510010,道帷主线站-道帏匝道收费站1,0,,35.6176,102.688,K31+050,0,,,,,,,,,,,,,0,76724323,,0,0,63,实体门架,停用,S031063001000510010,S03106300100501010,青海省,省界收费门架,省界入口
,G002213004000420010,冀晋涉县省界-涉县西收费站1,0,,36.5164,113.586,K729+950,0,,,,,,,,,,,,,0,506129697,,0,0,13,实体门架,在用,,,河北省,省界收费门架,省界入口
,G002213004000420020,冀晋涉县省界-涉县西收费站2,0,,36.516,113.581,K730+450,0,,,,,,,,,,,,,0,507128813,,0,0,13,实体门架,在用,,,河北省,省界收费门架,省界入口
,G002213004000310020,涉县西收费站-冀晋涉县省界2,0,,36.5164,113.587,K729+920,0,,,,,,,,,,,,,0,2510026,,0,0,13,实体门架,在用,,,河北省,省界收费门架,省界出口
,G001812003000820020,荣乌省界(河北)翟庄子收费站-郭庄子收费站匝道互通2,0,,38.6198,117.235,K693+600,0,,,,,,,,,,,,,0,17574788,,0,0,12,实体门架,在用,,,天津市,省界收费门架,省界入口
,G001812003000810010,郭庄子收费站匝道互通-荣乌省界(河北)翟庄子收费站1,0,,38.633,117.229,K695+100,0,,,,,,,,,,,,,0,54056398,,0,0,12,实体门架,在用,,,天津市,省界收费门架,省界出口
,G451222001000510020,西明嘎主线收费站至坦途互通门架2,0,,46.2117,123.381,K313+450,0,,,,,,,,,,,,,0,75231149,,0,0,22,实体门架,在用,,,吉林省,省界收费门架,省界入口
,G451222001000510010,西明嘎主线收费站至坦途互通门架1,0,,46.2159,123.381,K313+950,0,,,,,,,,,,,,,0,75231149,,0,0,22,实体门架,在用,,,吉林省,省界收费门架,省界入口
,G009513003001020010,密涿高速潮白河大桥冀京省界-香河西收费站1,0,,39.8405,116.941,K178+705,0,,,,,,,,,,,,,0,61079995,,0,0,13,实体门架,在用,,,河北省,省界收费门架,省界入口
,G009513003000910010,香河西收费站-密涿高速潮白河大桥冀京省界1,0,,39.841,116.941,K178+675,0,,,,,,,,,,,,,0,61079998,,0,0,13,实体门架,在用,,,河北省,省界收费门架,省界出口
,G004513003000220020,固安-固安省界收费站2,0,,39.4676,116.283,K1356+700,0,,,,,,,,,,,,,0,28298959,,0,0,13,实体门架,在用,,,河北省,省界收费门架,省界出口
,G004513003000220010,固安-固安省界收费站1,0,,39.4633,116.282,K1357+200,0,,,,,,,,,,,,,0,28298959,,0,0,13,实体门架,在用,,,河北省,省界收费门架,省界出口
,G012113002000220020,京秦高速公路冀津省界-蒋福山收费站2,0,,40.0105,117.187,K59+820,0,,,,,,,,,,,,,0,66010619,,0,0,13,实体门架,在用,,,河北省,省界收费门架,省界入口
,G012113002000220010,京秦高速公路冀津省界-蒋福山收费站1,0,,40.012,117.193,K60+320,0,,,,,,,,,,,,,0,66010619,,0,0,13,实体门架,在用,,,河北省,省界收费门架,省界入口
,G009513004000220020,万庄收费站-密涿高速公路万庄京冀省界2,0,,39.5898,116.595,K224+472,0,,,,,,,,,,,,,0,61207176,,0,0,13,实体门架,在用,,,河北省,省界收费门架,省界出口
,G009513004000220010,万庄收费站-密涿高速公路万庄京冀省界1,0,,39.5874,116.591,K224+492,0,,,,,,,,,,,,,0,61207176,,0,0,13,实体门架,在用,,,河北省,省界收费门架,省界出口
,S001237002000910210,德州西-滨德鲁冀门架,0,,37.5182,116.305,K142+900,0,,,,,,,,,,,,,0,71278771,,0,0,37,实体门架,在用,,,山东省,省界收费门架,省界出口
,S001237002000910090,德州西-滨德鲁冀门架,0,,37.5172,116.311,K142+400,0,,,,,,,,,,,,,0,40291459,,0,0,37,实体门架,在用,,,山东省,省界收费门架,省界出口
,G001222001002810010,石头井子收费站至岭下互通门架1,0,,45.8736,122.377,K887+120,0,,,,,,,,,,,,,0,71357215,,0,0,22,实体门架,在用,,,吉林省,省界收费门架,省界入口
,G001222001002820010,岭下互通至石头井子收费站门架1,0,,45.8702,122.383,K886+582,0,,,,,,,,,,,,,0,71357209,,0,0,22,实体门架,在用,,,吉林省,省界收费门架,省界出口
,G004513002000820010,京冀界-偏桥站1,0,,40.6933,117.298,K1130+570,0,,,,,,,,,,,,,0,43749823,,0,0,13,实体门架,在用,,,河北省,省界收费门架,省界入口
,G004513002000820020,京冀界-偏桥站2,0,,40.6905,117.293,K1131+090,0,,,,,,,,,,,,,0,43749828,,0,0,13,实体门架,在用,,,河北省,省界收费门架,省界入口
,G004513002000710020,偏桥站-京冀界2,0,,40.6936,117.298,K1130+535,0,,,,,,,,,,,,,0,43749821,,0,0,13,实体门架,在用,,,河北省,省界收费门架,省界出口
,G004513002000710010,偏桥站-京冀界1,0,,40.6997,117.304,K1129+720,0,,,,,,,,,,,,,0,43749818,,0,0,13,实体门架,在用,,,河北省,省界收费门架,省界出口
,G000714081000110010,京乌河北界至京乌互通1,0,,40.6878,114.17,K255+290,0,,,,,,,,,,,,,0,42931381,,0,0,14,实体门架,在用,,,山西省,省界收费门架,省界入口
,G012113002001310010,京秦高速公路京冀省界-燕郊西收费站1,0,,40.0031,116.777,K23+200,0,,,,,,,,,,,,,0,43400719,,0,0,13,实体门架,在用,,,河北省,省界收费门架,省界入口
,G000714081000310010,京乌互通至京乌内蒙界1,0,,40.6894,114.13,K258+910,0,,,,,,,,,,,,,0,42931372,,0,0,14,实体门架,在用,,,山西省,省界收费门架,省界出口
,G000714081000420010,京乌内蒙界至京乌互通1,0,,40.6892,114.129,K258+940,0,,,,,,,,,,,,,0,42931359,,0,0,14,实体门架,在用,,,山西省,省界收费门架,省界入口
,G012113002001420010,燕郊西收费站-京秦高速公路京冀省界1,0,,40.0033,116.778,K23+230,0,,,,,,,,,,,,,0,76261100,,0,0,13,实体门架,在用,,,河北省,省界收费门架,省界出口
,G000714081000220010,京乌互通至京乌河北界1,0,,40.6876,114.169,K255+320,0,,,,,,,,,,,,,0,42931384,,0,0,14,实体门架,在用,,,山西省,省界收费门架,省界出口
,S001237002001020100,滨德鲁冀-德州西门架,0,,37.5185,116.295,K143+800,0,,,,,,,,,,,,,0,12847910,,0,0,37,实体门架,在用,,,山东省,省界收费门架,省界入口
,S001237002001020220,滨德鲁冀-德州西门架,0,,37.5181,116.29,K144+300,0,,,,,,,,,,,,,0,12847910,,0,0,37,实体门架,在用,,,山东省,省界收费门架,省界入口
,G009511001000810020,北京采育西站-北京采育南站2,0,,39.6249,116.622,K216+850,0,,,,,,,,,,,,,0,501128213,,0,0,11,实体门架,在用,,,北京市,省界收费门架,省界出口
,G009511001000810010,北京采育西站-北京采育南站1,0,,39.6295,116.626,K216+250,0,,,,,,,,,,,,,0,46077420,,0,0,11,实体门架,在用,,,北京市,省界收费门架,省界出口
,G009511001000110020,北京首环京冀站-北京京哈高速互通2,0,,39.8253,116.92,K181+080,0,,,,,,,,,,,,,0,47665536,,0,0,11,实体门架,在用,,,北京市,省界收费门架,省界入口
,G009511001000110010,北京首环京冀站-北京京哈高速互通1,0,,39.8326,116.926,K180+080,0,,,,,,,,,,,,,0,47665536,,0,0,11,实体门架,在用,,,北京市,省界收费门架,省界入口
,G009511001001620020,北京京哈高速互通-北京首环京冀站2,0,,39.822,116.918,K181+370,0,,,,,,,,,,,,,0,47665537,,0,0,11,实体门架,在用,,,北京市,省界收费门架,省界出口
,G009511001001620010,北京京哈高速互通-北京首环京冀站1,0,,39.8094,116.918,K182+790,0,,,,,,,,,,,,,0,66011017,,0,0,11,实体门架,在用,,,北京市,省界收费门架,省界出口
,G009511001000920020,北京采育南站-北京采育西站2,0,,39.6243,116.622,K216+880,0,,,,,,,,,,,,,0,47665532,,0,0,11,实体门架,在用,,,北京市,省界收费门架,省界入口
,G009511001000920010,北京采育南站-北京采育西站1,0,,39.6194,116.619,K217+505,0,,,,,,,,,,,,,0,47665532,,0,0,11,实体门架,在用,,,北京市,省界收费门架,省界入口
,G251637004000510050,临清-高邢鲁冀门架,0,,36.8806,115.77,K299+300,0,,,,,,,,,,,,,0,28276907,,0,0,37,实体门架,在用,,,山东省,省界收费门架,省界出口
,G251637004000620060,高邢鲁冀-临清门架,0,,36.8811,115.764,K299+856,0,,,,,,,,,,,,,0,12570691,,0,0,37,实体门架,在用,,,山东省,省界收费门架,省界入口
,G251637004000620120,高邢鲁冀-临清门架,0,,36.8817,115.758,K300+350,0,,,,,,,,,,,,,0,12570691,,0,0,37,实体门架,在用,,,山东省,省界收费门架,省界入口
,G251637004000510110,临清-高邢鲁冀门架,0,,36.8812,115.765,K299+804,0,,,,,,,,,,,,,0,28276907,,0,0,37,实体门架,在用,,,山东省,省界收费门架,省界出口
,G000113002004510010,京冀界-香河北匝道收费站1,0,,39.7995,116.98,K45+700,0,,,,,,,,,,,,,0,249664,,0,0,13,实体门架,在用,,,河北省,省界收费门架,省界入口
,G000113002004510020,京冀界-香河北匝道收费站2,0,,39.8,116.974,K45+200,0,,,,,,,,,,,,,0,249664,,0,0,13,实体门架,在用,,,河北省,省界收费门架,省界入口
,G000513006001020010,省界-大理岩收费站1,0,,38.0764,113.928,K323+690,0,,,,,,,,,,,,,0,57845089,,0,0,13,实体门架,在用,,,河北省,省界收费门架,省界入口
,G000513006001020020,省界-大理岩收费站2,0,,38.0711,113.93,K324+300,0,,,,,,,,,,,,,0,57845089,,0,0,13,实体门架,在用,,,河北省,省界收费门架,省界入口
,G002013001000110020,冀鲁省界-清河收费站2,0,,37.096,115.717,K471+470,0,,,,,,,,,,,,,0,15094096,,0,0,13,实体门架,在用,,,河北省,省界收费门架,省界入口
,G002013001000110010,冀鲁省界-清河收费站1,0,,37.0938,115.722,K470+970,0,,,,,,,,,,,,,0,15094096,,0,0,13,实体门架,在用,,,河北省,省界收费门架,省界入口
,G000513006000910020,大理岩收费站-省界2,0,,38.0774,113.927,K323+600,0,,,,,,,,,,,,,0,28262118,,0,0,13,实体门架,在用,,,河北省,省界收费门架,省界出口
,G002013001000220010,清河收费站-冀鲁省界1,0,,37.0962,115.716,K471+500,0,,,,,,,,,,,,,0,15094094,,0,0,13,实体门架,在用,,,河北省,省界收费门架,省界出口
,G002013001000220020,清河收费站-冀鲁省界2,0,,37.0984,115.711,K472+000,0,,,,,,,,,,,,,0,15094094,,0,0,13,实体门架,在用,,,河北省,省界收费门架,省界出口
,G000513006000910010,大理岩收费站-省界1,0,,38.0818,113.926,K323+100,0,,,,,,,,,,,,,0,28262118,,0,0,13,实体门架,在用,,,河北省,省界收费门架,省界出口
,G000113001003910010,津冀界-玉田匝道收费站1,0,,39.7432,117.682,K110+300,0,,,,,,,,,,,,,0,7317131,,0,0,13,实体门架,在用,,,河北省,省界收费门架,省界入口
,G000113001003910020,津冀界-玉田匝道收费站2,0,,39.741,117.675,K109+800,0,,,,,,,,,,,,,0,7317131,,0,0,13,实体门架,在用,,,河北省,省界收费门架,省界入口
,G001837013000110210,鲁北-无棣门架,0,,37.9307,117.641,K603+550,0,,,,,,,,,,,,,0,12571295,,0,0,37,实体门架,在用,,,山东省,省界收费门架,省界入口
,G001837013000110010,鲁北-无棣门架,0,,37.9275,117.644,K603+150,0,,,,,,,,,,,,,0,12571295,,0,0,37,实体门架,在用,,,山东省,省界收费门架,省界入口
,G001837013002020220,无棣-鲁北主线门架,0,,37.9283,117.643,K602+500,0,,,,,,,,,,,,,0,12571297,,0,0,37,实体门架,在用,,,山东省,省界收费门架,省界出口
,G000113001000220010,冀辽界-孟姜匝道收费站1,0,,40.0501,119.82,K301+530,0,,,,,,,,,,,,,0,49662312,,0,0,13,实体门架,在用,,,河北省,省界收费门架,省界入口
,G000113001000110010,孟姜匝道收费站-冀辽界1,0,,40.0492,119.819,K301+500,0,,,,,,,,,,,,,0,12570713,,0,0,13,实体门架,在用,,,河北省,省界收费门架,省界出口
,G000237001001010090,京沪鲁冀-乐陵北门架,0,,37.8262,117.103,K263+400,0,,,,,,,,,,,,,0,109710994,,0,0,37,实体门架,在用,,,山东省,省界收费门架,省界入口
,G000237001001010100,京沪鲁冀-乐陵北门架,0,,37.8306,117.104,K262+900,0,,,,,,,,,,,,,0,109710992,,0,0,37,实体门架,在用,,,山东省,省界收费门架,省界入口
,G000237001000120010,乐陵北-京沪鲁冀门架,0,,37.8404,117.106,K261+700,0,,,,,,,,,,,,,0,29764775,,0,0,37,实体门架,在用,,,山东省,省界收费门架,省界出口
,G000237001000120020,乐陵北-京沪鲁冀门架,0,,37.8227,117.103,K263+700,0,,,,,,,,,,,,,0,40291456,,0,0,37,实体门架,在用,,,山东省,省界收费门架,省界出口
,G002014037000110010,旧关站至阳盂_太旧拆分点1,0,,37.7854,113.713,K713+440,0,,,,,,,,,,,,,0,42008257,,0,0,14,实体门架,在用,,,山西省,省界收费门架,省界入口
,G002014037000220010,阳盂_太旧拆分点至旧关站1,0,,37.7857,113.712,K713+470,0,,,,,,,,,,,,,0,42008259,,0,0,14,实体门架,在用,,,山西省,省界收费门架,省界出口
,G000514029000110010,郝家庄至岔口1,0,,38.045,113.686,K350+070,0,,,,,,,,,,,,,0,58337076,,0,0,14,实体门架,在用,,,山西省,省界收费门架,省界入口
,G000514029000220010,岔口至郝家庄1,0,,38.0443,113.684,K350+960,0,,,,,,,,,,,,,0,57758377,,0,0,14,实体门架,在用,,,山西省,省界收费门架,省界出口
,G032137002000110020,德商鲁冀-支线立交门架,0,,37.3475,116.034,K1+350,0,,,,,,,,,,,,,0,70311500,,0,0,37,实体门架,在用,,,山东省,省界收费门架,省界入口
,G000213003001020010,冀鲁省界-千童收费站1,0,,37.8573,117.108,K259+130,0,,,,,,,,,,,,,0,29764799,,0,0,13,实体门架,在用,,,河北省,省界收费门架,省界入口
,G250212001001320020,滨保省界(河北)石各庄站收费站-京沪滨保互通(石各庄)2,0,,39.2797,116.893,K97+600,0,,,,,,,,,,,,,0,61057908,,0,0,12,实体门架,在用,,,天津市,省界收费门架,省界入口
,G250212001001310010,京沪滨保互通(石各庄)-滨保省界(河北)石各庄站收费站1,0,,39.2785,116.896,K97+300,0,,,,,,,,,,,,,0,17776245,,0,0,12,实体门架,在用,,,天津市,省界收费门架,省界出口
,G032137006000610020,德商鲁豫2-鄄城北门架,0,,35.6863,115.553,K238+800,0,,,,,,,,,,,,,0,57941197,,0,0,37,实体门架,在用,,,山东省,省界收费门架,省界入口
,G032137006000610010,德商鲁豫2-鄄城北门架,0,,35.689,115.554,K238+400,0,,,,,,,,,,,,,0,57941197,,0,0,37,实体门架,在用,,,山东省,省界收费门架,省界入口
,G032137006000520110,鄄城北-德商鲁豫2门架,0,,35.6815,115.553,K239+350,0,,,,,,,,,,,,,0,57941199,,0,0,37,实体门架,在用,,,山东省,省界收费门架,省界出口
,G004513001000110020,茅荆坝收费站至大庙互通2,0,,41.539,118.129,K987+490,0,,,,,,,,,,,,,0,61950533,,0,0,13,实体门架,在用,,,河北省,省界收费门架,省界入口
,G004513001000110010,茅荆坝收费站至大庙互通1,0,,41.5435,118.129,K986+985,0,,,,,,,,,,,,,0,61950533,,0,0,13,实体门架,在用,,,河北省,省界收费门架,省界入口
,G004513001000220010,大庙互通至茅荆坝收费站1,0,,41.5383,118.13,K987+520,0,,,,,,,,,,,,,0,61950535,,0,0,13,实体门架,在用,,,河北省,省界收费门架,省界出口
,G004513001000220020,大庙互通至茅荆坝收费站2,0,,41.5336,118.129,K988+015,0,,,,,,,,,,,,,0,61950535,,0,0,13,实体门架,在用,,,河北省,省界收费门架,省界出口
,S350013001000110020,南湖收费站-丰南主线站2,0,,39.5565,117.943,K12+980,0,,,,,,,,,,,,,0,48263654,,0,0,13,实体门架,在用,,,河北省,省界收费门架,省界出口
,S350013001000110010,南湖收费站-丰南主线站1,0,,39.5564,117.949,K12+480,0,,,,,,,,,,,,,0,48263652,,0,0,13,实体门架,在用,,,河北省,省界收费门架,省界出口
,G251613002001620010,冀晋省界-路罗收费站1,0,,37.1504,113.869,K483+050,0,,,,,,,,,,,,,0,57830137,,0,0,13,实体门架,在用,,,河北省,省界收费门架,省界入口
,G251613002001620020,冀晋省界-路罗收费站2,0,,37.1532,113.863,K483+600,0,,,,,,,,,,,,,0,57830137,,0,0,13,实体门架,在用,,,河北省,省界收费门架,省界入口
,S005014031001220010,太佳站至兔坂站1,0,,38.0337,110.575,K208+040,0,,,,,,,,,,,,,0,15768866,,0,0,14,实体门架,在用,,,山西省,省界收费门架,省界入口
,G251613002001510010,路罗收费站-冀晋省界1,0,,37.1484,113.874,K482+520,0,,,,,,,,,,,,,0,57830133,,0,0,13,实体门架,在用,,,河北省,省界收费门架,省界出口
,G002213005000110020,冀鲁省界-馆陶收费站2,0,,36.5586,115.299,K551+470,0,,,,,,,,,,,,,0,88591704,,0,0,13,实体门架,在用,,,河北省,省界收费门架,省界入口
,G002213005000110010,冀鲁省界-馆陶收费站1,0,,36.5549,115.303,K550+970,0,,,,,,,,,,,,,0,88591704,,0,0,13,实体门架,在用,,,河北省,省界收费门架,省界入口
,S005014031001110010,兔坂站至太佳站1,0,,38.0341,110.576,K208+010,0,,,,,,,,,,,,,0,502073586,,0,0,14,实体门架,在用,,,山西省,省界收费门架,省界出口
,G002213005000220010,馆陶收费站-冀鲁省界1,0,,36.5621,115.294,K552+000,0,,,,,,,,,,,,,0,2656385,,0,0,13,实体门架,在用,,,河北省,省界收费门架,省界出口
,G181213002002420010,保阜与山西忻阜高速连接处-东下关收费站1,0,,38.9422,113.848,K259+870,0,,,,,,,,,,,,,0,501098074,,0,0,13,实体门架,在用,,,河北省,省界收费门架,省界入口
,S380111002001110010,北京海陀站-北京京礼市界站1,0,,40.5077,115.791,K70+200,0,,,,,,,,,,,,,0,600128932,,0,0,11,实体门架,在用,,,北京市,省界收费门架,省界出口
,S000313001001910020,阳原收费站-冀晋主线收费站2,0,,40.0384,113.986,K267+272,0,,,,,,,,,,,,,0,505105643,,0,0,13,实体门架,在用,,,河北省,省界收费门架,省界出口
,S000313001001910010,阳原收费站-冀晋主线收费站1,0,,40.0391,113.992,K266+790,0,,,,,,,,,,,,,0,601105978,,0,0,13,实体门架,在用,,,河北省,省界收费门架,省界出口
,S380113001000910020,怀来北互通-京冀省界2,0,,40.5206,115.641,ZK84+677,0,,,,,,,,,,,,,0,608129081,,0,0,13,实体门架,在用,,,河北省,省界收费门架,省界出口
,S380113001000910010,怀来北互通-京冀省界1,0,,40.5218,115.641,ZK84+827,0,,,,,,,,,,,,,0,608129081,,0,0,13,实体门架,在用,,,河北省,省界收费门架,省界出口
,G002237008000710210,魏庄-青兰鲁冀门架,0,,36.3463,115.545,K508+900,0,,,,,,,,,,,,,0,,,0,0,37,实体门架,在用,,,山东省,省界收费门架,省界出口
,G002237008000710070,魏庄-青兰鲁冀门架,0,,36.3445,115.551,K508+370,0,,,,,,,,,,,,,0,,,0,0,37,实体门架,在用,,,山东省,省界收费门架,省界出口
,G002213001000110020,冀鲁省界-金滩镇收费站2,0,,36.3326,115.348,K528+730,0,,,,,,,,,,,,,0,,,0,0,13,实体门架,在用,,,河北省,省界收费门架,省界入口
,G002213001000110010,冀鲁省界-金滩镇收费站1,0,,36.334,115.355,K528+230,0,,,,,,,,,,,,,0,,,0,0,13,实体门架,在用,,,河北省,省界收费门架,省界入口
,G032137009001220120,巨单鲁皖龙王庙门架,0,,34.6685,116.232,K429+345,0,,,,,,,,,,,,,0,,,0,0,37,实体门架,在用,,,山东省,省界收费门架,省界入口
,G032137009001220110,巨单鲁皖-龙王庙门架,0,,34.667,116.236,K429+345,0,,,,,,,,,,,,,0,,,0,0,37,实体门架,在用,,,山东省,省界收费门架,省界入口
,S380111002001220010,北京京礼市界站-北京海陀站1,0,,40.5073,115.791,K70+200,0,,,,,,,,,,,,,0,609129491,,0,0,11,实体门架,在用,,,北京市,省界收费门架,省界入口
,S000313001002020010,冀晋主线收费站-阳原收费站1,0,,40.0382,113.986,K267+305,0,,,,,,,,,,,,,0,602106308,,0,0,13,实体门架,在用,,,河北省,省界收费门架,省界入口
,S000313001002020020,冀晋主线收费站-阳原收费站2,0,,40.0375,113.98,K267+828,0,,,,,,,,,,,,,0,610105426,,0,0,13,实体门架,在用,,,河北省,省界收费门架,省界入口
,G002237008000820080,青兰鲁冀-魏庄门架,0,,36.3463,115.544,K508+950,0,,,,,,,,,,,,,0,,,0,0,37,实体门架,在用,,,山东省,省界收费门架,省界入口
,G002237008000820220,青兰鲁冀-魏庄门架,0,,36.3478,115.539,K509+420,0,,,,,,,,,,,,,0,,,0,0,37,实体门架,在用,,,山东省,省界收费门架,省界入口
,G002213001000220020,金滩镇收费站-冀鲁省界2,0,,36.3318,115.345,K529+030,0,,,,,,,,,,,,,0,,,0,0,13,实体门架,在用,,,河北省,省界收费门架,省界出口
,G002213001000220010,金滩镇收费站-冀鲁省界1,0,,36.3313,115.339,K529+530,0,,,,,,,,,,,,,0,,,0,0,13,实体门架,在用,,,河北省,省界收费门架,省界出口
,S380113001001020020,京冀省界-怀来北互通2,0,,40.5158,115.643,K84+097,0,,,,,,,,,,,,,0,502129331,,0,0,13,实体门架,在用,,,河北省,省界收费门架,省界入口
,S380113001001020010,京冀省界-怀来北互通1,0,,40.5199,115.641,K84+597,0,,,,,,,,,,,,,0,606129392,,0,0,13,实体门架,在用,,,河北省,省界收费门架,省界入口
,G221161001000120020,乾坤湾匝道至陕西延川省界,0,,36.7852,110.388,K308+255,0,,,,,,,,,,,,,0,111830007,,0,0,61,实体门架,在用,,,陕西省,省界收费门架,省界出口
,G221161001000120010,乾坤湾匝道至陕西延川省界,0,,36.782,110.384,K308+780,0,,,,,,,,,,,,,0,111830012,,0,0,61,实体门架,在用,,,陕西省,省界收费门架,省界出口
,S003261001000720010,陕西佳县至佳县,0,,38.0372,110.488,K0+770,0,,,,,,,,,,,,,0,15768816,,0,0,61,实体门架,在用,,,陕西省,省界收费门架,省界入口
,G181764001000120010,银巴省界入口门架1,0,,38.3706,105.97,K215+230,0,,,,,,,,,,,,,0,90505357,,0,0,64,实体门架,在用,,,宁夏回族自治区,省界收费门架,省界入口
,G221161001000110020,陕西延川省界至乾坤湾匝道,0,,36.7858,110.389,K308+260,0,,,,,,,,,,,,,0,111830005,,0,0,61,实体门架,在用,,,陕西省,省界收费门架,省界入口
,G221161001000110010,陕西延川省界至乾坤湾匝道,0,,36.7899,110.396,K307+442,0,,,,,,,,,,,,,0,111829997,,0,0,61,实体门架,在用,,,陕西省,省界收费门架,省界入口
,S003261001000710020,佳县至陕西佳县,0,,38.0389,110.482,K1+300,0,,,,,,,,,,,,,0,15768820,,0,0,61,实体门架,在用,,,陕西省,省界收费门架,省界出口
,S003261001000710010,佳县至陕西佳县,0,,38.0414,110.477,K1+800,0,,,,,,,,,,,,,0,41603014,,0,0,61,实体门架,在用,,,陕西省,省界收费门架,省界出口
,G451223003003010150,泰来虚-街基主线门架,0,,46.3049,123.407,K326+100,0,,,,,,,,,,,,,0,70309243,,0,0,23,实体门架,在用,,,黑龙江省,省界收费门架,省界出口
,G451223003003010140,泰来虚-街基主线门架,0,,46.3096,123.408,K326+700,0,,,,,,,,,,,,,0,70309243,,0,0,23,实体门架,在用,,,黑龙江省,省界收费门架,省界出口
,G004515001000210010,欧里主线-巴彦塔拉1,0,,43.6254,123.359,K423+300,0,,,,,,,,,,,,,0,507091109,,0,0,15,实体门架,在用,,,内蒙古自治区,省界收费门架,省界入口
,G012112001000610010,京秦省界(河北)白涧站收费站-许家台收费站匝道互通1,0,,40.0155,117.215,K61+500,0,,,,,,,,,,,,,0,46575654,,0,0,12,实体门架,在用,,,天津市,省界收费门架,省界入口
,G012112001000610030,京秦省界(河北)白涧站收费站-许家台收费站匝道互通3,0,,40.0147,117.208,K46+200,0,,,,,,,,,,,,,0,77270920,,0,0,12,实体门架,在用,,,天津市,省界收费门架,省界入口
,G012112001000110010,京秦塘承互通-京秦省界(河北)别山站收费站1,0,,39.9393,117.482,K87+600,0,,,,,,,,,,,,,0,30417869,,0,0,12,实体门架,在用,,,天津市,省界收费门架,省界出口
,S001511001000610010,北京德仁务站-北京永乐站1,0,,39.656,116.794,K35+350,0,,,,,,,,,,,,,0,12651009,,0,0,11,实体门架,在用,,,北京市,省界收费门架,省界出口
,G000662003000810020,海石湾匝道站-甘青省界1,0,,36.3025,102.933,K1681+500,0,,,,,,,,,,,,,0,6060160,,0,0,62,实体门架,在用,,,甘肃省,省界收费门架,省界出口
,G000662003000810010,海石湾匝道站-甘青省界1,0,,36.3028,102.937,K1681+900,0,,,,,,,,,,,,,0,6060160,,0,0,62,实体门架,在用,,,甘肃省,省界收费门架,省界出口
,G000313001001510020,东安庄收费站-冀津省界2,0,,39.289,116.866,K80+550,0,,,,,,,,,,,,,0,510105352,,0,0,13,实体门架,在用,,,河北省,省界收费门架,省界出口
,G000313001001510010,东安庄收费站-冀津省界1,0,,39.2897,116.86,K80+050,0,,,,,,,,,,,,,0,70490902,,0,0,13,实体门架,在用,,,河北省,省界收费门架,省界出口
,S000112001000110010,田家峪收费站匝道互通-津蓟省界(北京)莲花岭站收费站1,0,,40.0842,117.238,K114+200,0,,,,,,,,,,,,,0,600078473,,0,0,12,实体门架,在用,,,天津市,省界收费门架,省界出口
,S001111003003910010,北京司马台匝道站-北京司马台站1,0,,40.6381,117.257,K125+650,0,,,,,,,,,,,,,0,14762341,,0,0,11,实体门架,在用,,,北京市,省界收费门架,省界出口
,S001111003003910020,北京司马台匝道站-北京司马台站2,0,,40.6419,117.26,K126+150,0,,,,,,,,,,,,,0,488150,,0,0,11,实体门架,在用,,,北京市,省界收费门架,省界出口
,G000213003000910010,千童收费站-冀鲁省界1,0,,37.8584,117.108,K259+100,0,,,,,,,,,,,,,0,29764809,,0,0,13,实体门架,在用,,,河北省,省界收费门架,省界出口
,G000211001000510010,北京京沪廊坊站-北京京沪市界站1,0,,39.5827,116.789,K39+800,0,,,,,,,,,,,,,0,12716795,,0,0,11,实体门架,在用,,,北京市,省界收费门架,省界出口
,G251613001000110010,冀鲁界-运河西收费站1,0,,36.8831,115.703,K305+742,0,,,,,,,,,,,,,0,88591749,,0,0,13,实体门架,在用,,,河北省,省界收费门架,省界入口
,G251121001000110020,章古台互通立交-阿尔乡收费站2,0,,42.8171,122.456,K100+119,0,,,,,,,,,,,,,0,5402151,,0,0,21,实体门架,在用,,,辽宁省,省界收费门架,省界出口
,G251121001000110010,章古台互通立交-阿尔乡收费站1,0,,42.8126,122.459,K99+589,0,,,,,,,,,,,,,0,5402150,,0,0,21,实体门架,在用,,,辽宁省,省界收费门架,省界出口
,S031063001000510020,道帷主线站-道帏匝道收费站2,0,,35.6615,102.619,K30+540,0,,,,,,,,,,,,,0,506098997,,0,0,63,实体门架,停用,,,青海省,省界收费门架,省界入口
,G012113002000110020,蒋福山收费站-京秦高速公路冀津省界2,0,,40.0103,117.186,K59+780,0,,,,,,,,,,,,,0,46575589,,0,0,13,实体门架,在用,,,河北省,省界收费门架,省界出口
,G012113002000110010,蒋福山收费站-京秦高速公路冀津省界1,0,,40.0102,117.179,K59+200,0,,,,,,,,,,,,,0,46575590,,0,0,13,实体门架,在用,,,河北省,省界收费门架,省界出口
,G000113002004110010,香河东匝道收费站-冀津界1,0,,39.786,117.116,K57+700,0,,,,,,,,,,,,,0,16241772,,0,0,13,实体门架,在用,,,河北省,省界收费门架,省界出口
,G000113002004110020,香河东匝道收费站-冀津界2,0,,39.7865,117.11,K57+200,0,,,,,,,,,,,,,0,16241772,,0,0,13,实体门架,在用,,,河北省,省界收费门架,省界出口
,G032137002000110010,德商鲁冀-支线立交门架,0,,37.3511,116.035,K0+850,0,,,,,,,,,,,,,0,70311500,,0,0,37,实体门架,在用,,,山东省,省界收费门架,省界入口
,G181213002002310010,东下关收费站-保阜与山西忻阜高速连接处1,0,,38.9383,113.859,K258+730,0,,,,,,,,,,,,,0,506106684,,0,0,13,实体门架,在用,,,河北省,省界收费门架,省界出口
,G121222001000120020,大湾收费站至山城互通门架2,0,,42.3026,125.28,K160+650,0,,,,,,,,,,,,,0,70039963,,0,0,22,实体门架,在用,,,吉林省,省界收费门架,省界入口
,S001022001000220020,英额布互通至下排收费站门架2,0,,41.7295,125.356,K43+710,0,,,,,,,,,,,,,0,78365338,,0,0,22,实体门架,在用,,,吉林省,省界收费门架,省界出口
,S003211001001420020,北京夏各庄站-北京南太务站2,0,,40.1099,117.211,K68+450,0,,,,,,,,,,,,,0,428435,,0,0,11,实体门架,在用,,,北京市,省界收费门架,省界入口
,S001522001000520020,安恕互通至安恕主线收费站门架2,0,,42.8054,124.996,K70+900,0,,,,,,,,,,,,,0,17102300,,0,0,22,实体门架,在用,,,吉林省,省界收费门架,省界出口
,S001522001000520010,安恕互通至安恕主线收费站门架1,0,,42.8104,124.999,K70+320,0,,,,,,,,,,,,,0,17102412,,0,0,22,实体门架,在用,,,吉林省,省界收费门架,省界出口
,G451222001000520010,坦途互通至西明嘎主线收费站门架1,0,,46.2087,123.381,K313+160,0,,,,,,,,,,,,,0,75231147,,0,0,22,实体门架,在用,,,吉林省,省界收费门架,省界出口
,S370113002001020020,冀晋界-暖泉古镇互通2,0,,39.811,114.398,K184+511,0,,,,,,,,,,,,,0,109991598,,0,0,13,实体门架,在用,,,河北省,省界收费门架,省界入口
,S001111003004020020,北京司马台站-北京司马台匝道站2,0,,40.6424,117.26,K126+180,0,,,,,,,,,,,,,0,14762346,,0,0,11,实体门架,在用,,,北京市,省界收费门架,省界入口
,S001111003004020010,北京司马台站-北京司马台匝道站1,0,,40.6503,117.257,K127+150,0,,,,,,,,,,,,,0,14762350,,0,0,11,实体门架,在用,,,北京市,省界收费门架,省界入口
,S002241001005120020,南乐东_南林豫鲁界西向东第二排,0,,36.0623,115.394,K7+750,0,,,,,,,,,,,,,0,76806084,,0,0,41,实体门架,在用,,,河南省,省界收费门架,省界出口
,S350013001000220020,丰南主线站-南湖收费站2,0,,39.557,117.939,K13+180,0,,,,,,,,,,,,,0,83410063,,0,0,13,实体门架,在用,,,河北省,省界收费门架,省界入口
,S350013001000220010,丰南主线站-南湖收费站1,0,,39.5585,117.933,K13+680,0,,,,,,,,,,,,,0,83410063,,0,0,13,实体门架,在用,,,河北省,省界收费门架,省界入口
,G251613001000220010,运河西收费站-冀鲁界1,0,,36.8831,115.702,K305+772,0,,,,,,,,,,,,,0,11661453,,0,0,13,实体门架,在用,,,河北省,省界收费门架,省界出口
,G000121006001120010,东戴河互通立交-万家收费站1,0,,40.0642,119.848,K304+500,0,,,,,,,,,,,,,0,49662312,,0,0,21,实体门架,在用,,,辽宁省,省界收费门架,省界出口
,G000121001000120010,毛家店收费站-杏山枢纽立交1,0,,43.0817,124.393,K849+260,0,,,,,,,,,,,,,0,44933449,,0,0,21,实体门架,在用,,,辽宁省,省界收费门架,省界入口
,G451222001000520020,坦途互通至西明嘎主线收费站门架2,0,,46.2028,123.381,K312+500,0,,,,,,,,,,,,,0,75231147,,0,0,22,实体门架,在用,,,吉林省,省界收费门架,省界出口
,G001837013002020200,无棣-鲁北主线门架,0,,37.9312,117.64,K603+100,0,,,,,,,,,,,,,0,12571297,,0,0,37,实体门架,在用,,,山东省,省界收费门架,省界出口
,G032137002000220040,支线立交-德商鲁冀门架,0,,37.343,116.033,K1+700,0,,,,,,,,,,,,,0,9183291,,0,0,37,实体门架,在用,,,山东省,省界收费门架,省界出口
,G032137002000220030,支线立交-德商鲁冀门架,0,,37.3381,116.033,K2+250,0,,,,,,,,,,,,,0,9183291,,0,0,37,实体门架,在用,,,山东省,省界收费门架,省界出口
,G181764001000110020,银巴省界出口门架2,0,,38.368,105.976,K215+780,0,,,,,,,,,,,,,0,90505354,,0,0,64,实体门架,在用,,,宁夏回族自治区,省界收费门架,省界出口
,G181764001000110010,银巴省界出口门架1,0,,38.3658,105.981,K216+150,0,,,,,,,,,,,,,0,90505346,,0,0,64,实体门架,在用,,,宁夏回族自治区,省界收费门架,省界出口
,S002012001000110030,唐廊省界(河北)天津宁河站收费站-宁河岳龙收费站匝道互通3,0,,39.5594,117.916,K14+600,0,,,,,,,,,,,,,0,48263655,,0,0,12,实体门架,在用,,,天津市,省界收费门架,省界入口
,S002012001000110010,唐廊省界(河北)天津宁河站收费站-宁河岳龙收费站匝道互通1,0,,39.5599,117.922,K14+100,0,,,,,,,,,,,,,0,34998094,,0,0,12,实体门架,在用,,,天津市,省界收费门架,省界入口
,S370113002000910010,暖泉古镇互通-冀晋界1,0,,39.8125,114.41,K183+481,0,,,,,,,,,,,,,0,110062060,,0,0,13,实体门架,在用,,,河北省,省界收费门架,省界出口
,G061563003000920020,久治主线站-久治匝道站2,0,,33.4139,101.454,K681+230,0,,,,,,,,,,,,,0,69738880,,0,0,63,实体门架,停用,,,青海省,省界收费门架,省界入口
,G000514065001220010,龙门大桥至河津西1,0,,35.5931,110.633,K840+630,0,,,,,,,,,,,,,0,109902912,,0,0,14,实体门架,在用,,,山西省,省界收费门架,省界入口
,S031063001000520010,道帏匝道收费站-道帷主线站1,0,,35.6172,102.689,K30+010,0,,,,,,,,,,,,,0,76724321,,0,0,63,实体门架,停用,S031063001000520010,S03106300100502010,青海省,省界收费门架,省界出口
,G001531003000420020,G15省界-S19互通立交,0,,30.7305,121.274,K1343+808,0,,,,,,,,,,,,,0,605120625,,0,0,31,实体门架,在用,,,上海市,省界收费门架,省界入口
,G001531003000420010,G15省界-S19互通立交,0,,30.7331,121.278,K1343+330,0,,,,,,,,,,,,,0,7159902,,0,0,31,实体门架,在用,,,上海市,省界收费门架,省界入口
,G001531003000410020,S19互通立交-G15省界,0,,30.7335,121.279,K1343+300,0,,,,,,,,,,,,,0,608122092,,0,0,31,实体门架,在用,,,上海市,省界收费门架,省界出口
,G001531003000410010,S19互通立交-G15省界,0,,30.737,121.281,K1342+850,0,,,,,,,,,,,,,0,510122946,,0,0,31,实体门架,在用,,,上海市,省界收费门架,省界出口
,G001533001001710030,新仓-浙沪南主线3,0,,30.7248,121.26,K1347+000,0,,,,,,,,,,,,,0,7159884,,0,0,33,实体门架,在用,,,浙江省,省界收费门架,省界出口
,G001533001001710020,新仓-浙沪南主线2,0,,30.7179,121.233,K1349+750,0,,,,,,,,,,,,,0,87881143,,0,0,33,实体门架,在用,,,浙江省,省界收费门架,省界出口
,G001533001001710010,新仓-浙沪南主线1,0,,30.7167,121.227,K1350+300,0,,,,,,,,,,,,,0,87881142,,0,0,33,实体门架,在用,,,浙江省,省界收费门架,省界出口
,G000615001000220010,兴和东-蒙冀界1,0,,40.8459,113.896,K268+380,0,,,,,,,,,,,,,0,19206073,,0,0,15,实体门架,在用,,,内蒙古自治区,省界收费门架,省界出口
,G000615001000220020,兴和东-蒙冀界2,0,,40.8481,113.887,K268+880,0,,,,,,,,,,,,,0,19206073,,0,0,15,实体门架,在用,,,内蒙古自治区,省界收费门架,省界出口
,G000615001000210020,蒙冀界-兴和东2,0,,40.8457,113.897,K268+800,0,,,,,,,,,,,,,0,47698185,,0,0,15,实体门架,在用,,,内蒙古自治区,省界收费门架,省界入口
,G000615001000210010,蒙冀界-兴和东1,0,,40.8439,113.909,K269+330,0,,,,,,,,,,,,,0,47698184,,0,0,15,实体门架,在用,,,内蒙古自治区,省界收费门架,省界入口
,G000313001001620020,冀津省界-东安庄收费站2,0,,39.2874,116.873,K81+200,0,,,,,,,,,,,,,0,78306632,,0,0,13,实体门架,在用,,,河北省,省界收费门架,省界入口
,G000664001003110020,兴仁省界出口门架2,0,,36.9541,105.251,K1406+030,0,,,,,,,,,,,,,0,90505461,,0,0,64,实体门架,在用,,,宁夏回族自治区,省界收费门架,省界出口
,G000664001003120020,兴仁省界入口门架2,0,,36.9533,105.246,K1406+610,0,,,,,,,,,,,,,0,6028649,,0,0,64,实体门架,在用,,,宁夏回族自治区,省界收费门架,省界入口
,G000663001000420020,马场垣站-马场垣主线站2,0,,36.3139,102.897,K1685+820,0,,,,,,,,,,,,,0,71168814,,0,0,63,实体门架,在用,,,青海省,省界收费门架,省界出口
,G000664001003120010,兴仁省界入口门架1,0,,36.9543,105.252,K1406+000,0,,,,,,,,,,,,,0,5950879,,0,0,64,实体门架,在用,,,宁夏回族自治区,省界收费门架,省界入口
,G000664001003110010,兴仁省界出口门架1,0,,36.9548,105.257,K1405+500,0,,,,,,,,,,,,,0,90527528,,0,0,64,实体门架,在用,,,宁夏回族自治区,省界收费门架,省界出口
,G000211001000620010,北京京沪市界站-北京京沪廊坊站1,0,,39.5767,116.799,K40+850,0,,,,,,,,,,,,,0,7723888,,0,0,11,实体门架,在用,,,北京市,省界收费门架,省界入口
,G032137009001110090,龙王庙-巨单鲁皖门架,0,,34.6698,116.224,K428+815,0,,,,,,,,,,,,,0,,,0,0,37,实体门架,在用,,,山东省,省界收费门架,省界出口
,S004614018000110010,石咀站至五台山景区站1,0,,38.9107,113.742,K272+150,0,,,,,,,,,,,,,0,507105716,,0,0,14,实体门架,在用,,,山西省,省界收费门架,省界入口
,G101313001000110020,冀蒙界至二秦互通2,0,,41.5812,114.986,k1306+470,0,,,,,,,,,,,,,0,112308280,,0,0,13,实体门架,在用,,,河北省,省界收费门架,省界入口
,G006515003001420010,蒙陕界-兰家梁1,0,,39.1424,109.789,K200+900,0,,,,,,,,,,,,,0,15611353,,0,0,15,实体门架,在用,,,内蒙古自治区,省界收费门架,省界入口
,G006515003001420020,蒙陕界-兰家梁2,0,,39.1376,109.788,K201+400,0,,,,,,,,,,,,,0,15611353,,0,0,15,实体门架,在用,,,内蒙古自治区,省界收费门架,省界入口
,G351141004005110020,豫鲁省界_长垣北站东向西第二排,0,,35.3208,114.888,K70+610,0,,,,,,,,,,,,,0,601063544,,0,0,41,实体门架,在用,,,河南省,省界收费门架,省界入口
,G005515004010820020,蒙晋界-丰镇2,0,,40.4227,113.093,K417+950,0,,,,,,,,,,,,,0,5995583,,0,0,15,实体门架,在用,,,内蒙古自治区,省界收费门架,省界入口
,G005515004010820010,蒙晋界-丰镇1,0,,40.4181,113.093,K418+450,0,,,,,,,,,,,,,0,5995583,,0,0,15,实体门架,在用,,,内蒙古自治区,省界收费门架,省界入口
,G005515004010810020,丰镇-蒙晋界2,0,,40.424,113.092,K417+900,0,,,,,,,,,,,,,0,5995582,,0,0,15,实体门架,在用,,,内蒙古自治区,省界收费门架,省界出口
,G005515004010810010,丰镇-蒙晋界1,0,,40.4281,113.092,K417+400,0,,,,,,,,,,,,,0,5995582,,0,0,15,实体门架,在用,,,内蒙古自治区,省界收费门架,省界出口
,G001015003000220010,阿荣旗南-蒙黑界1,0,,48.0214,123.466,K876+300,0,,,,,,,,,,,,,0,14949192,,0,0,15,实体门架,在用,,,内蒙古自治区,省界收费门架,省界出口
,G001015003000220020,阿荣旗南-蒙黑界2,0,,48.0257,123.464,K876+800,0,,,,,,,,,,,,,0,14949192,,0,0,15,实体门架,在用,,,内蒙古自治区,省界收费门架,省界出口
,G001015003000210020,蒙黑界-阿荣旗南2,0,,48.0209,123.466,K876+250,0,,,,,,,,,,,,,0,41042401,,0,0,15,实体门架,在用,,,内蒙古自治区,省界收费门架,省界入口
,G001015003000210010,蒙黑界-阿荣旗南1,0,,48.0167,123.469,K875+750,0,,,,,,,,,,,,,0,41042401,,0,0,15,实体门架,在用,,,内蒙古自治区,省界收费门架,省界入口
,G251115002000220020,甘旗卡-好力堡2,0,,43.0012,122.423,K122+460,0,,,,,,,,,,,,,0,620091177,,0,0,15,实体门架,在用,,,内蒙古自治区,省界收费门架,省界出口
,G251115002000210020,好力堡-甘旗卡2,0,,43.0004,122.423,K121+910,0,,,,,,,,,,,,,0,504090648,,0,0,15,实体门架,在用,,,内蒙古自治区,省界收费门架,省界入口
,G251115002000210010,好力堡-甘旗卡1,0,,42.9976,122.423,K121+410,0,,,,,,,,,,,,,0,604091218,,0,0,15,实体门架,在用,,,内蒙古自治区,省界收费门架,省界入口
,G002064001001420010,盐池省界-青银盐池东枢纽入口门架,0,,37.73,107.5,K1372+750,0,,,,,,,,,,,,,0,15611344,,0,0,64,实体门架,在用,,,宁夏回族自治区,省界收费门架,省界入口
,G251115002000220010,甘旗卡-好力堡1,0,,43.0064,122.424,K122+960,0,,,,,,,,,,,,,0,605091169,,0,0,15,实体门架,在用,,,内蒙古自治区,省界收费门架,省界出口
,G181715005000810020,长流水-巴润别立主线2,0,,38.4222,105.733,K185+630,0,,,,,,,,,,,,,0,5681348,,0,0,15,实体门架,在用,,,内蒙古自治区,省界收费门架,省界出口
,G181715005000810010,长流水-巴润别立主线1,0,,38.4248,105.728,K186+130,0,,,,,,,,,,,,,0,5681348,,0,0,15,实体门架,在用,,,内蒙古自治区,省界收费门架,省界出口
,G005642001000120020,枫林-鄂东南2,0,,29.7477,115.407,K566+960,0,,,,,,,,,,,,,0,15014800,,0,0,42,实体门架,在用,,,湖北省,省界收费门架,省界出口
,G181715005000820020,巴润别立主线-长流水2,0,,38.4218,105.734,K186+675,0,,,,,,,,,,,,,0,5679954,,0,0,15,实体门架,在用,,,内蒙古自治区,省界收费门架,省界入口
,G181715005000820010,巴润别立主线-长流水1,0,,38.4179,105.738,K186+180,0,,,,,,,,,,,,,0,5679954,,0,0,15,实体门架,在用,,,内蒙古自治区,省界收费门架,省界入口
,G001615004000220010,平庄-平庄主线1,0,,42.1161,119.321,K507+075,0,,,,,,,,,,,,,0,30278383,,0,0,15,实体门架,在用,,,内蒙古自治区,省界收费门架,省界出口
,G001615004000220020,平庄-平庄主线2,0,,42.1153,119.327,K506+582,0,,,,,,,,,,,,,0,30278383,,0,0,15,实体门架,在用,,,内蒙古自治区,省界收费门架,省界出口
,G001615004000210010,平庄主线-平庄1,0,,42.1152,119.329,K506+540,0,,,,,,,,,,,,,0,40599225,,0,0,15,实体门架,在用,,,内蒙古自治区,省界收费门架,省界入口
,G001615004000210020,平庄主线-平庄2,0,,42.1154,119.328,K506+065,0,,,,,,,,,,,,,0,40599228,,0,0,15,实体门架,在用,,,内蒙古自治区,省界收费门架,省界入口
,G004061001000120010,商南西匝道至陕西商南省界,0,,33.4733,110.881,K1297+300,0,,,,,,,,,,,,,0,3497440,,0,0,61,实体门架,在用,,,陕西省,省界收费门架,省界出口
,G004061001000120020,商南西匝道至陕西商南省界,0,,33.4709,110.873,K1298+050,0,,,,,,,,,,,,,0,6322254,,0,0,61,实体门架,在用,,,陕西省,省界收费门架,省界出口
,S002715001002620020,三号地-贡宝拉格2,0,,41.6911,115.118,K283+750,0,,,,,,,,,,,,,0,520106306,,0,0,15,实体门架,在用,,,内蒙古自治区,省界收费门架,省界入口
,S002715001002620010,三号地-贡宝拉格1,0,,41.6883,115.114,K284+250,0,,,,,,,,,,,,,0,503106035,,0,0,15,实体门架,在用,,,内蒙古自治区,省界收费门架,省界入口
,S002715001002610020,贡宝拉格-三号地2,0,,41.692,115.119,K283+700,0,,,,,,,,,,,,,0,501105902,,0,0,15,实体门架,在用,,,内蒙古自治区,省界收费门架,省界出口
,S002715001002610010,贡宝拉格-三号地1,0,,41.6951,115.124,K283+200,0,,,,,,,,,,,,,0,608105756,,0,0,15,实体门架,在用,,,内蒙古自治区,省界收费门架,省界出口
,G000715003004210020,黑鹰山-黑鹰山主线2,0,,42.0082,98.3948,K1758+500,0,,,,,,,,,,,,,0,109787089,,0,0,15,实体门架,在用,,,内蒙古自治区,省界收费门架,省界出口
,G000715003004220020,黑鹰山主线-黑鹰山2,0,,42.0082,98.3892,K1758+500,0,,,,,,,,,,,,,0,61726913,,0,0,15,实体门架,在用,,,内蒙古自治区,省界收费门架,省界入口
,G000715003004220010,黑鹰山主线-黑鹰山1,0,,42.0079,98.3946,K1758+500,0,,,,,,,,,,,,,0,61726913,,0,0,15,实体门架,在用,,,内蒙古自治区,省界收费门架,省界入口
,G000715003004210010,黑鹰山-黑鹰山主线1,0,,42.0078,98.4028,K1758+500,0,,,,,,,,,,,,,0,109787089,,0,0,15,实体门架,在用,,,内蒙古自治区,省界收费门架,省界出口
,G001815001000210020,清水河界-十七沟2,0,,39.8049,111.972,K1274+350,0,,,,,,,,,,,,,0,602117289,,0,0,15,实体门架,在用,,,内蒙古自治区,省界收费门架,省界入口
,G001815001000210010,清水河界-十七沟1,0,,39.8027,111.979,K1273+700,0,,,,,,,,,,,,,0,605117049,,0,0,15,实体门架,在用,,,内蒙古自治区,省界收费门架,省界入口
,G001815001000220020,十七沟-清水河界2,0,,39.8049,111.971,K1274+400,0,,,,,,,,,,,,,0,505116713,,0,0,15,实体门架,在用,,,内蒙古自治区,省界收费门架,省界出口
,G001815001000220010,十七沟-清水河界1,0,,39.8059,111.965,K1274+900,0,,,,,,,,,,,,,0,109086198,,0,0,15,实体门架,在用,,,内蒙古自治区,省界收费门架,省界出口
,G001533001001720020,浙沪南主线-新仓2,0,,30.7185,121.235,K1349+580,0,,,,,,,,,,,,,0,8848450,,0,0,33,实体门架,停用,,,浙江省,省界收费门架,省界入口
,G006515003001410020,兰家梁-蒙陕界2,0,,39.1432,109.789,K200+850,0,,,,,,,,,,,,,0,6602628,,0,0,15,实体门架,在用,,,内蒙古自治区,省界收费门架,省界出口
,G006515003001410010,兰家梁-蒙陕界1,0,,39.148,109.789,K200+350,0,,,,,,,,,,,,,0,6602628,,0,0,15,实体门架,在用,,,内蒙古自治区,省界收费门架,省界出口
,G005915001001420010,和林格尔主线-新店子互通1,0,,40.247,112.174,K78+221,0,,,,,,,,,,,,,0,602109678,,0,0,15,实体门架,在用,,,内蒙古自治区,省界收费门架,省界入口
,G005915001001420020,和林格尔主线-新店子互通2,0,,40.2535,112.187,K78+281,0,,,,,,,,,,,,,0,520109733,,0,0,15,实体门架,在用,,,内蒙古自治区,省界收费门架,省界入口
,G351137002000920020,菏宝鲁豫-东明北门架,0,,35.3314,115.093,K49+900,0,,,,,,,,,,,,,0,48293310,,0,0,37,实体门架,在用,,,山东省,省界收费门架,省界入口
,G005915001001410020,新店子互通-和林格尔主线2,0,,40.2531,112.186,K76+960,0,,,,,,,,,,,,,0,500108289,,0,0,15,实体门架,在用,,,内蒙古自治区,省界收费门架,省界出口
,G005915001001410010,新店子互通-和林格尔主线1,0,,40.2465,112.174,K76+910,0,,,,,,,,,,,,,0,507107698,,0,0,15,实体门架,在用,,,内蒙古自治区,省界收费门架,省界出口
,G001533015001210030,马站-省界3,0,,27.2688,120.435,K374+030,0,,,,,,,,,,,,,0,111224054,,0,0,33,实体门架,停用,,,浙江省,省界收费门架,省界出口
,G001533015001210020,马站-省界2,0,,27.2691,120.442,K373+390,0,,,,,,,,,,,,,0,111224054,,0,0,33,实体门架,停用,,,浙江省,省界收费门架,省界出口
,G001533015001210010,马站-省界1,0,,27.2692,120.445,K373+070,0,,,,,,,,,,,,,0,111224054,,0,0,33,实体门架,停用,,,浙江省,省界收费门架,省界出口
,G001215001000210020,蒙吉界-白音乌苏2,0,,45.9971,122.313,K902+100,0,,,,,,,,,,,,,0,506101458,,0,0,15,实体门架,在用,,,内蒙古自治区,省界收费门架,省界入口
,G001215001000210010,蒙吉界-白音乌苏1,0,,45.9932,122.316,K901+600,0,,,,,,,,,,,,,0,603100614,,0,0,15,实体门架,在用,,,内蒙古自治区,省界收费门架,省界入口
,G001215001000220010,白音乌苏-蒙吉界1,0,,45.9976,122.313,K902+135,0,,,,,,,,,,,,,0,608100568,,0,0,15,实体门架,在用,,,内蒙古自治区,省界收费门架,省界出口
,G001215001000220020,白音乌苏-蒙吉界2,0,,46.0012,122.309,K902+635,0,,,,,,,,,,,,,0,500101052,,0,0,15,实体门架,在用,,,内蒙古自治区,省界收费门架,省界出口
,S003014007001420010,西口省界站-右卫收费站1,0,,40.1865,112.33,K96+900,0,,,,,,,,,,,,,0,14829348,,0,0,14,实体门架,在用,,,山西省,省界收费门架,省界入口
,S003014007001310010,右卫站至西口站1,0,,40.1861,112.331,K96+950,0,,,,,,,,,,,,,0,71852341,,0,0,14,实体门架,在用,,,山西省,省界收费门架,省界出口
,G002214060001620010,临吉终点至壶口景区站1,0,,36.0532,110.494,K1062+300,0,,,,,,,,,,,,,0,53645753,,0,0,14,实体门架,在用,,,山西省,省界收费门架,省界入口
,G002214060001510010,壶口景区站至临吉终点1,0,,36.0539,110.495,K1062+270,0,,,,,,,,,,,,,0,85121619,,0,0,14,实体门架,在用,,,山西省,省界收费门架,省界出口
,G121222001000120010,大湾收费站至山城互通门架1,0,,42.3019,125.274,K160+150,0,,,,,,,,,,,,,0,70039958,,0,0,22,实体门架,在用,,,吉林省,省界收费门架,省界入口
,S009541001005110010,济阳豫晋省界_庙前互通阳济第一排,0,,35.095,112.367,K15+430,0,,,,,,,,,,,,,0,,,0,0,41,实体门架,在用,,,河南省,省界收费门架,省界入口
,S009541001005120010,庙前互通阳济_济阳豫晋省界第一排,0,,35.0939,112.369,K15+600,0,,,,,,,,,,,,,0,,,0,0,41,实体门架,在用,,,河南省,省界收费门架,省界出口
,G005514004000220010,新荣站至得胜口1,0,,40.3305,113.178,K431+830,0,,,,,,,,,,,,,0,7582038,,0,0,14,实体门架,在用,,,山西省,省界收费门架,省界出口
,G005514004000110010,得胜口至新荣站1,0,,40.3308,113.177,K431+800,0,,,,,,,,,,,,,0,7581951,,0,0,14,实体门架,在用,,,山西省,省界收费门架,省界入口
,G002013002000820010,冀晋省界-秀林收费站1,0,,37.9844,114.077,K668+350,0,,,,,,,,,,,,,0,109991838,,0,0,13,实体门架,在用,,,河北省,省界收费门架,省界入口
,G002013002000820020,冀晋省界-秀林收费站2,0,,37.9862,114.072,K668+850,0,,,,,,,,,,,,,0,109991838,,0,0,13,实体门架,在用,,,河北省,省界收费门架,省界入口
,G002013002000710020,秀林收费站-冀晋省界2,0,,37.9841,114.077,K668+320,0,,,,,,,,,,,,,0,109991836,,0,0,13,实体门架,在用,,,河北省,省界收费门架,省界出口
,G002013002000710010,秀林收费站-冀晋省界1,0,,37.9815,114.082,K667+820,0,,,,,,,,,,,,,0,109991836,,0,0,13,实体门架,在用,,,河北省,省界收费门架,省界出口
,G011113001003620370,涧河主线站-丰南南收费站37,0,,39.2402,118.105,K156+250,0,,,,,,,,,,,,,0,604107062,,0,0,13,实体门架,在用,,,河北省,省界收费门架,省界入口
,G011113001003620380,涧河主线站-丰南南收费站38,0,,39.2373,118.101,K156+750,0,,,,,,,,,,,,,0,502107107,,0,0,13,实体门架,在用,,,河北省,省界收费门架,省界入口
,G011113001003510360,丰南南收费站-涧河主线站36,0,,39.2412,118.106,K156+220,0,,,,,,,,,,,,,0,520107526,,0,0,13,实体门架,在用,,,河北省,省界收费门架,省界出口
,G011113001003510350,丰南南收费站-涧河主线站35,0,,39.2446,118.109,K155+720,0,,,,,,,,,,,,,0,508107670,,0,0,13,实体门架,在用,,,河北省,省界收费门架,省界出口
,G004515004001220020,内蒙茅荆坝-美林2,0,,41.6062,118.292,K965+820,0,,,,,,,,,,,,,0,520097869,,0,0,15,实体门架,在用,,,内蒙古自治区,省界收费门架,省界入口
,G004515004001220010,内蒙茅荆坝-美林1,0,,41.6071,118.28,K966+600,0,,,,,,,,,,,,,0,505097200,,0,0,15,实体门架,在用,,,内蒙古自治区,省界收费门架,省界入口
,G004515004001210020,美林-内蒙茅荆坝2,0,,41.6066,118.294,K965+750,0,,,,,,,,,,,,,0,40291447,,0,0,15,实体门架,在用,,,内蒙古自治区,省界收费门架,省界出口
,G004515004001210010,美林-内蒙茅荆坝1,0,,41.6071,118.301,K965+100,0,,,,,,,,,,,,,0,500098046,,0,0,15,实体门架,在用,,,内蒙古自治区,省界收费门架,省界出口
,G002264001000320010,毛家沟-隆德下行门架（隆德省界入口）,0,,35.6113,106.113,K1620+730,0,,,,,,,,,,,,,0,69760122,,0,0,64,实体门架,在用,,,宁夏回族自治区,省界收费门架,省界入口
,S002012001000120040,宁河岳龙收费站匝道互通-唐廊省界(河北)天津宁河站收费站4,0,,39.558,117.911,K14+950,0,,,,,,,,,,,,,0,48263643,,0,0,12,实体门架,在用,,,天津市,省界收费门架,省界出口
,S002012001000120020,宁河岳龙收费站匝道互通-唐廊省界(河北)天津宁河站收费站2,0,,39.5569,117.905,K15+500,0,,,,,,,,,,,,,0,42723652,,0,0,12,实体门架,在用,,,天津市,省界收费门架,省界出口
,S007014057001220010,永和关至乾坤湾景区1,0,,36.8055,110.474,K299+130,0,,,,,,,,,,,,,0,111829950,,0,0,14,实体门架,在用,,,山西省,省界收费门架,省界入口
,S007014057001110010,乾坤湾景区至永和关1,0,,36.8056,110.476,K298+988,0,,,,,,,,,,,,,0,111829947,,0,0,14,实体门架,在用,,,山西省,省界收费门架,省界出口
,G101313001000110010,冀蒙界至二秦互通1,0,,41.5854,114.987,k1305+970,0,,,,,,,,,,,,,0,3006247,,0,0,13,实体门架,在用,,,河北省,省界收费门架,省界入口
,G101313001000220010,二秦互通至冀蒙界1,0,,41.5803,114.986,k1306+500,0,,,,,,,,,,,,,0,3033614,,0,0,13,实体门架,在用,,,河北省,省界收费门架,省界出口
,G101313001000220020,二秦互通至冀蒙界2,0,,41.5762,114.984,k1307+000,0,,,,,,,,,,,,,0,3033614,,0,0,13,实体门架,在用,,,河北省,省界收费门架,省界出口
,G421552001006520020,赤水收费站（新站）至省界,0,,28.5901,105.723,K294+240,0,,,,,,,,,,,,,0,91551681,,0,0,52,实体门架,在用,,,贵州省,省界收费门架,省界出口
,G421552001006520010,赤水收费站（新站）至省界,0,,28.589,105.724,K293+564,0,,,,,,,,,,,,,0,91551681,,0,0,52,实体门架,在用,,,贵州省,省界收费门架,省界出口
,S003014003000110010,孙启庄至神泉堡1,0,,40.0343,113.95,K1+050,0,,,,,,,,,,,,,0,3293185,,0,0,14,实体门架,在用,,,山西省,省界收费门架,省界入口
,S003014003000220010,神泉堡至孙启庄2,0,,40.0334,113.943,K1+630,0,,,,,,,,,,,,,0,3291668,,0,0,14,实体门架,在用,,,山西省,省界收费门架,省界出口
,G000337001001220040,德州北枢纽-京台鲁冀门架,0,,37.5032,116.394,K300+300,0,,,,,,,,,,,,,0,109710979,,0,0,37,实体门架,备用,,,山东省,省界收费门架,省界出口
,G000411001001120010,北京琉璃河南站-北京琉璃河站1,0,,39.587,116.05,K43+730,0,,,,,,,,,,,,,0,58061673,,0,0,11,实体门架,在用,,,北京市,省界收费门架,省界入口
,G001023001000220020,黑蒙界主线-甘南虚门架,0,,47.9889,123.493,K882+200,0,,,,,,,,,,,,,0,30241285,,0,0,23,实体门架,在用,,,黑龙江省,省界收费门架,省界入口
,G004511002001620010,北京榆垡南站-北京求贤站1,0,,39.5004,116.294,K1351+200,0,,,,,,,,,,,,,0,458475,,0,0,11,实体门架,在用,,,北京市,省界收费门架,省界入口
,G000112001010110010,新钟收费站-新钟收费站匝道互通1,0,,39.735,117.56,1,0,,,,,,,,,,,,,0,84043427,,0,0,12,虚拟门架,在用,G000112001010110010,G00011200100201010,天津,路段收费门架,省界入口
,G001812003000110010,荣乌天津主线站01广场-荣乌津晋互通(青泊洼)1,0,,38.9867,117.196,1,0,,,,,,,,,,,,,0,87979311,,0,0,12,虚拟门架,在用,G001812003000110010,G00181200300101010,天津,路段收费门架,省界入口
,G001812003010410010,郭庄子收费站-郭庄子收费站匝道互通1,0,,38.6341,117.227,1,0,,,,,,,,,,,,,0,41673502,,0,0,12,虚拟门架,在用,G001812003010410010,G00181200300501010,天津,路段收费门架,省界入口
,G011112001000420020,永定新河收费站收费站-中心渔港收费站匝道互通2,0,,39.1501,117.803,1,0,,,,,,,,,,,,,0,7373661,,0,0,12,虚拟门架,在用,G011112001000420020,G01111200100301010,天津,路段收费门架,省界入口
,G012112001010210010,邦均收费站-邦均收费站匝道互通1,0,,39.9873,117.307,1,0,,,,,,,,,,,,,0,70754983,,0,0,12,虚拟门架,在用,G012112001010210010,G01211200100301010,天津,路段收费门架,省界入口
,S000112001010210010,田家峪收费站收费站-田家峪收费站匝道互通1,0,,40.0858,117.239,1,0,,,,,,,,,,,,,0,43920230,,0,0,12,虚拟门架,在用,S000112001010210010,S00011200100201020,天津,省界收费门架,省界入口
,S000112001010410010,蓟州收费站收费站-蓟州收费站匝道互通1,0,,40.0298,117.364,1,0,,,,,,,,,,,,,0,41813725,,0,0,12,虚拟门架,在用,S000112001010410010,S00011200100401010,天津,路段收费门架,省界入口
,S000712001000110010,津保天津收费站收费站-津同路收费站匝道互通1,0,,39.2304,117.052,1,0,,,,,,,,,,,,,0,88588712,,0,0,12,虚拟门架,在用,S000712001000110010,S00071200100101010,天津,路段收费门架,省界入口
,S003012001011010010,牛镇收费站-牛镇收费站匝道互通1,0,,39.611,116.888,1,0,,,,,,,,,,,,,0,7836103,,0,0,12,虚拟门架,在用,S003012001011010010,S00301200101101010,天津,路段收费门架,省界入口
,S003012001011110010,高村收费站-高村收费站匝道互通1,0,,39.6319,116.838,1,0,,,,,,,,,,,,,0,19235958,,0,0,12,虚拟门架,在用,S003012001011110010,S00301200101201010,天津,省界收费门架,省界入口
,S005012001000110010,津晋塘沽收费站收费站-长深津晋互通(葛沽)1,0,,38.9672,117.559,1,0,,,,,,,,,,,,,0,40116353,,0,0,12,虚拟门架,在用,S005012001000110010,S00501200100101010,天津,路段收费门架,省界入口
,G031662001000110010,甘陕省界-杨店站1,0,,33.9394,106.416,K0+230,0,,,,,,,,,,,,,0,,,0,0,62,实体门架,停用,,,甘肃,省界收费门架,省界入口
,G031662001000120010,杨店站-甘陕省界1,0,,33.9439,106.411,K0+260,0,,,,,,,,,,,,,0,,,0,0,62,实体门架,停用,,,甘肃,省界收费门架,省界出口
,G761152000508010110,高坎子收费站至中水收费站,0,,27.2228,103.783,1,0,,,,,,,,,,,,,0,37065685,,0,0,52,实体门架,停用,G761152000508010110,G76115200051501010,贵州,省界收费门架,省界出口
,G761152000508020110,中水收费站至高坎子收费站,0,,27.2229,103.783,1,0,,,,,,,,,,,,,0,37065688,,0,0,52,实体门架,停用,G761152000508020110,G76115200051502010,贵州,省界收费门架,省界入口
,G000441001005120020,柏庄互通_京港澳豫冀省界第二排,0,,36.2199,114.399,K484+580,0,,,,,,,,,,,,,0,2616492,,0,0,41,实体门架,在用,,,河南,省界收费门架,省界出口
,G005941001005120020,连霍三淅互通_三淅豫晋界第二排,0,,34.6724,110.956,K875+615,0,,,,,,,,,,,,,0,111079095,,0,0,41,实体门架,在用,,,河南,省界收费门架,省界出口
,G551241006005120020,焦作西_豫晋省界第二排,0,,35.2345,113.151,K45+815,0,,,,,,,,,,,,,0,91241229,,0,0,41,实体门架,在用,,,河南,省界收费门架,省界出口
,S002841006005110020,邵原_济邵豫晋省界第二排,0,,35.1461,112.119,K348+700,0,,,,,,,,,,,,,0,15752949,,0,0,41,实体门架,在用,,,河南,省界收费门架,省界出口
,S003241001005120020,济祁永登互通_永登豫皖界第二排,0,,33.8039,116.422,K448+480,0,,,,,,,,,,,,,0,85342628,,0,0,41,实体门架,在用,,,河南,省界收费门架,省界出口
,S008341005005710020,邓州南构林_豫鄂省界第二排,0,,32.4381,112.116,K1448+635,0,,,,,,,,,,,,,0,3267262,,0,0,41,实体门架,在用,,,河南,省界收费门架,省界出口
,S009541001005120020,庙前互通阳济_济阳豫晋省界第二排,0,,35.0944,112.363,K54+050,0,,,,,,,,,,,,,0,,,0,0,41,实体门架,在用,,,河南,省界收费门架,省界出口
,G000123001000710030,拉林河主线-石家匝道点门架,0,,45.1602,126.142,K1138+950,0,,,,,,,,,,,,,0,35563556,,0,0,23,实体门架,停用,,,黑龙江,省界收费门架,省界入口
,G000123001000710040,拉林河主线-石家匝道点门架,0,,45.1622,126.143,K1139+350,0,,,,,,,,,,,,,0,35563556,,0,0,23,实体门架,停用,,,黑龙江,省界收费门架,省界入口
,G004242001000110020,鄂东-木子店2,0,,31.2276,115.408,K694+950,0,,,,,,,,,,,,,0,3772522,,0,0,42,实体门架,在用,,,湖北,省界收费门架,省界入口
,G004542002002310010,洪港-鄂赣1,0,,29.4958,114.846,K2575+80,0,,,,,,,,,,,,,0,49692658,,0,0,42,实体门架,在用,,,湖北,省界收费门架,省界出口
,G004542002002310020,洪港-鄂赣2,0,,29.503,114.848,K2574+400,0,,,,,,,,,,,,,0,49743537,,0,0,42,实体门架,在用,,,湖北,省界收费门架,省界出口
,G004542002002320010,鄂赣-洪港1,0,,29.4922,114.847,K2575+490,0,,,,,,,,,,,,,0,49692838,,0,0,42,实体门架,在用,,,湖北,省界收费门架,省界入口
,G004542002002320020,鄂赣-洪港2,0,,29.485,114.847,K2576+220,0,,,,,,,,,,,,,0,49692650,,0,0,42,实体门架,在用,,,湖北,省界收费门架,省界入口
,G005642001000120010,枫林-鄂东南1,0,,29.7477,115.407,K566+460,0,,,,,,,,,,,,,0,15014800,,0,0,42,实体门架,在用,,,湖北,省界收费门架,省界出口
,G005642001001510020,北港-鄂湘2,0,,29.2941,113.671,k754+800,0,,,,,,,,,,,,,0,27956605,,0,0,42,实体门架,在用,,,湖北,省界收费门架,省界出口
,G000615010001410020,乌斯太-蒙宁界,0,,39.3919,106.72,1,0,,,,,,,,,,,,,0,13973722,,0,0,15,实体门架,停用,,,内蒙古,省界收费门架,省界出口
,G000615010001420020,蒙宁界-乌斯太,0,,39.3913,106.72,1,0,,,,,,,,,,,,,0,35661438,,0,0,15,实体门架,停用,,,内蒙古,省界收费门架,省界入口
,G181261001000120020,府谷互通立交-府谷主线2,0,,38.9702,110.988,586.1,0,,,,,,,,,,,,,0,86428592,,0,0,61,实体门架,备用,,,陕西,省界收费门架,省界出口
,G000337001000110050,京台鲁冀-德州北枢纽门架,0,,37.5098,116.395,K299+300,0,,,,,,,,,,,,,0,109711006,,0,0,37,实体门架,备用,,,山东,省界收费门架,省界入口
,G000337001000110070,京台鲁冀-德州北枢纽门架,0,,37.5078,116.395,K299+480,0,,,,,,,,,,,,,0,15321070,,0,0,37,实体门架,备用,,,山东,省界收费门架,省界入口
,G000337001001220060,德州北枢纽-京台鲁冀门架,0,,37.5032,116.394,K300+300,0,,,,,,,,,,,,,0,109710979,,0,0,37,实体门架,备用,,,山东,省界收费门架,省界出口
,G000337001001220080,德州北枢纽-京台鲁冀门架,0,,37.5069,116.395,K299+530,0,,,,,,,,,,,,,0,109710978,,0,0,37,实体门架,备用,,,山东,省界收费门架,省界出口
,G000514029000220020,岔口至郝家庄2,0,,38.0444,113.685,K350+100,0,,,,,,,,,,,,,0,57758377,,0,0,14,实体门架,在用,,,山西,省界收费门架,省界出口
,G000514065001110020,河津西至龙门大桥2,0,,35.5934,110.636,K840+050,0,,,,,,,,,,,,,0,7667453,,0,0,14,实体门架,在用,,,山西,省界收费门架,省界出口
,G000714081000220020,京乌互通至京乌河北界2,0,,40.6876,114.169,K254+820,0,,,,,,,,,,,,,0,42931384,,0,0,14,实体门架,在用,,,山西,省界收费门架,省界出口
,G000714081000310020,京乌互通至京乌内蒙界2,0,,40.6894,114.13,K258+400,0,,,,,,,,,,,,,0,42931372,,0,0,14,实体门架,在用,,,山西,省界收费门架,省界出口
,G001814010000220020,灵丘站至驿马岭站2,0,,39.4574,114.307,K1027+500,0,,,,,,,,,,,,,0,40291427,,0,0,14,实体门架,在用,,,山西,省界收费门架,省界出口
,G001814011000910020,凤凰城站至二道梁站2,0,,39.7976,112.048,K1267+080,0,,,,,,,,,,,,,0,33955052,,0,0,14,实体门架,在用,,,山西,省界收费门架,省界出口
,G002014037000220020,阳盂_太旧拆分点至旧关站2,0,,37.7858,113.712,K714+540,0,,,,,,,,,,,,,0,42008259,,0,0,14,实体门架,在用,,,山西,省界收费门架,省界出口
,G002014042000710020,柳林西至军渡站2,0,,37.4202,110.771,K1042+030,0,,,,,,,,,,,,,0,6196117,,0,0,14,实体门架,在用,,,山西,省界收费门架,省界出口
,G002214054000220020,左黎长邯互通至东阳关站2,0,,36.5318,113.42,K745+000,0,,,,,,,,,,,,,0,43425654,,0,0,14,实体门架,在用,,,山西,省界收费门架,省界出口
,G005514004000220020,新荣站至得胜口2,0,,40.3305,113.178,K432+250,0,,,,,,,,,,,,,0,7582038,,0,0,14,实体门架,在用,,,山西,省界收费门架,省界出口
,G251614048000220020,和顺东站至山西和顺站2,0,,37.124,113.679,K504+290,0,,,,,,,,,,,,,0,58337067,,0,0,14,实体门架,在用,,,山西,省界收费门架,省界出口
,S003014003000110020,孙启庄至神泉堡2,0,,40.0343,113.95,K1+580,0,,,,,,,,,,,,,0,3293185,,0,0,14,实体门架,在用,,,山西,省界收费门架,省界入口
,S003014003000220020,神泉堡至孙启庄1,0,,40.0334,113.943,K2+130,0,,,,,,,,,,,,,0,3291668,,0,0,14,实体门架,在用,,,山西,省界收费门架,省界出口
,S003014007001310020,右卫站至西口站2,0,,40.1861,112.331,K96+400,0,,,,,,,,,,,,,0,71852341,,0,0,14,实体门架,在用,,,山西,省界收费门架,省界出口
,S003614008000220020,广灵至焦山主线2,0,,39.8101,114.36,K3+320,0,,,,,,,,,,,,,0,30412964,,0,0,14,实体门架,在用,,,山西,省界收费门架,省界出口
,S004614018000220020,五台山景区站至石咀站1,0,,38.9038,113.739,K274+430,0,,,,,,,,,,,,,0,16801097,,0,0,14,实体门架,在用,,,山西,省界收费门架,省界出口
,S005014031001110020,兔坂站至太佳站2,0,,38.034,110.576,K207+426,0,,,,,,,,,,,,,0,502073586,,0,0,14,实体门架,在用,,,山西,省界收费门架,省界出口
,S006514081000510010,蟒河收费站至济阳高速拆分点1,0,,35.3219,112.373,K117+776,0,,,,,,,,,,,,,0,,,0,0,14,实体门架,停用,,,山西,省界收费门架,省界出口
,S006514081000510020,蟒河收费站至济阳高速拆分点2,0,,35.3256,112.377,K117+202,0,,,,,,,,,,,,,0,,,0,0,14,实体门架,停用,,,山西,省界收费门架,省界出口
,S006514081000620010,济阳高速拆分点至蟒河收费站1,0,,35.3216,112.373,K117+806,0,,,,,,,,,,,,,0,,,0,0,14,实体门架,停用,,,山西,省界收费门架,省界入口
,S007014057001110020,乾坤湾景区至永和关2,0,,36.8056,110.476,K300+070,0,,,,,,,,,,,,,0,111829947,,0,0,14,实体门架,在用,,,山西,省界收费门架,省界出口
,S007614055001110020,虹霓峡收费站至虹梯关站2,0,,36.2452,113.659,K6+210,0,,,,,,,,,,,,,0,90523660,,0,0,14,实体门架,在用,,,山西,省界收费门架,省界出口
,G501251001000610020,达万四川站-达万讲治站门架,0,,31.0513,107.965,k174+175,0,,,,,,,,,,,,,0,30216352,,0,0,51,实体门架,在用,,,四川,省界收费门架,省界入口
,G601144001023010020,梅岭收费站至梅关主线门架,0,,25.302,114.362,K486+100,0,,,,,,,,,,,,,0,15221326,,0,0,44,实体门架,在用,,,广东,省界收费门架,省界出口
,G601144001025020020,梅关主线至梅岭收费站门架,0,,25.3026,114.361,K485+350,0,,,,,,,,,,,,,0,1207206,,0,0,44,实体门架,在用,,,广东,省界收费门架,省界入口
,G421552001006510010,省界至赤水收费站（新站）,0,,28.5904,105.722,K294+240,0,,,,,,,,,,,,,0,39904485,,0,0,52,实体门架,在用,,,贵州,省界收费门架,省界入口
,G000122003001510020,拉林河收费站至蔡家沟互通门架2,0,,45.1283,126.129,K1134+740,0,,,,,,,,,,,,,0,5917315,,0,0,22,实体门架,在用,,,吉林,省界收费门架,省界入口
,G000122003001520010,蔡家沟互通至拉林河收费站门架1,0,,45.1281,126.129,0,0,,,,,,,,,,,,,0,5917314,,0,0,22,实体门架,停用,,,吉林,省界收费门架,省界出口
,G000122003001520020,蔡家沟互通至拉林河收费站门架2,0,,45.1281,126.129,0,0,,,,,,,,,,,,,0,5917314,,0,0,22,实体门架,停用,,,吉林,省界收费门架,省界出口
,G032137009001110100,龙王庙-巨单鲁皖门架,0,,34.6687,116.23,K429+315,0,,,,,,,,,,,,,0,,,0,0,37,实体门架,在用,,,山东,省界收费门架,省界出口
,G351137002000920030,菏宝鲁豫-东明北门架,0,,35.3309,115.087,K50+400,0,,,,,,,,,,,,,0,48293310,,0,0,37,实体门架,在用,,,山东,省界收费门架,省界入口
,G000231001000810010,G2省界-G2绿地大道收费站,0,,31.2982,121.12,K45+500,0,,,,,,,,,,,,,0,504120014,,0,0,31,实体门架,在用,,,上海,省界收费门架,省界入口
,G501251001000610010,达万四川站-达万讲治站门架,0,,31.0508,107.962,K174+175,0,,,,,,,,,,,,,0,30216352,,0,0,51,实体门架,在用,,,四川,省界收费门架,省界入口
,G501251001000620020,达万讲治站-达万四川站门架,0,,31.0588,108.003,K171+200,0,,,,,,,,,,,,,0,500117550,,0,0,51,实体门架,在用,,,四川,省界收费门架,省界出口
,S000612003000610010,唐官屯收费站匝道互通-津沧南京沪二互通(大张屯)1,0,,38.7272,116.938,K47+270,0,,,,,,,,,,,,,0,6731806,,0,0,12,实体门架,在用,,,天津,省界收费门架,省界出口
,S000612003000610030,唐官屯收费站匝道互通-津沧南京沪二互通(大张屯)3,0,,38.7233,116.932,K47+840,0,,,,,,,,,,,,,0,6731856,,0,0,12,实体门架,在用,,,天津,省界收费门架,省界出口
,S000612003000620020,津沧南京沪二互通(大张屯)-唐官屯收费站匝道互通2,0,,38.7201,116.925,K48+600,0,,,,,,,,,,,,,0,6731875,,0,0,12,实体门架,在用,,,天津,省界收费门架,省界入口
,S000612003000620040,津沧南京沪二互通(大张屯)-唐官屯收费站匝道互通4,0,,38.7221,116.929,K48+100,0,,,,,,,,,,,,,0,6731878,,0,0,12,实体门架,在用,,,天津,省界收费门架,省界入口
,G001533001001720010,浙沪南主线-新仓1,0,,30.7199,121.241,K1349+580,0,,,,,,,,,,,,,0,8848450,,0,0,33,实体门架,在用,,,浙江,省界收费门架,省界入口
,G001533015001220020,省界-马站2,0,,27.2716,120.464,K371+034,0,,,,,,,,,,,,,0,110268033,,0,0,33,实体门架,停用,,,浙江,省界收费门架,省界入口
,G002264001000110020,沿川子省界入口门架2,0,,35.5795,106.447,K1583+936,0,,,,,,,,,,,,,0,90527587,,0,0,64,实体门架,在用,,,宁夏回族自治区,省界收费门架,省界入口
,G002264001000110010,沿川子省界入口门架1,0,,35.5789,106.453,K1583+350,0,,,,,,,,,,,,,0,44963779,,0,0,64,实体门架,在用,,,宁夏回族自治区,省界收费门架,省界入口
,G002264001000120010,沿川子省界出口门架2,0,,35.5827,106.436,K1584+900,0,,,,,,,,,,,,,0,90527578,,0,0,64,实体门架,在用,,,宁夏回族自治区,省界收费门架,省界出口
,G002264001000120020,沿川子省界出口门架1,0,,35.5862,106.432,K1585+450,0,,,,,,,,,,,,,0,90505333,,0,0,64,实体门架,在用,,,宁夏回族自治区,省界收费门架,省界出口
,G003541001005120010,双八_豫鲁省界南向北第一排,0,,34.5374,115.702,K345+780,0,,,,,,,,,,,,,0,63027338,,0,0,41,实体门架,在用,,,河南省,省界收费门架,省界出口
,G003041001005120010,芒砀山_豫皖界第一排西向东,0,,34.1544,116.494,K295+400,0,,,,,,,,,,,,,0,3285530,,0,0,41,实体门架,在用,,,河南省,省界收费门架,省界出口
,S005941003005510020,寺弯_三淅豫鄂省界北向南行驶第二排,0,,33.1497,111.17,K1075+690,0,,,,,,,,,,,,,0,504126319,,0,0,41,实体门架,在用,,,河南省,省界收费门架,省界出口
,G151137004000620090,日兰鲁豫-曹县西门架,0,,35.0108,115.13,K426+200,0,,,,,,,,,,,,,0,6435699,,0,0,37,实体门架,在用,,,山东省,省界收费门架,省界入口
,G151137004000620080,日兰鲁豫-曹县西门架,0,,35.0058,115.12,K427+200,0,,,,,,,,,,,,,0,62021784,,0,0,37,实体门架,在用,,,山东省,省界收费门架,省界入口
,G151137004000510070,曹县西-日兰鲁豫门架,0,,35.0113,115.13,K426+150,0,,,,,,,,,,,,,0,6435707,,0,0,37,实体门架,在用,,,山东省,省界收费门架,省界出口
,G151137004000510060,曹县西-日兰鲁豫门架,0,,35.0136,115.135,K425+650,0,,,,,,,,,,,,,0,6435708,,0,0,37,实体门架,在用,,,山东省,省界收费门架,省界出口
,G003061001000110010,潼关省界收费站至秦东匝道,0,,34.5812,110.358,K903+516,0,,,,,,,,,,,,,0,3444439,,0,0,61,实体门架,在用,,,陕西省,省界收费门架,省界入口
,G003061001000120010,秦东匝道至潼关省界收费站,0,,34.5819,110.357,K903+566,0,,,,,,,,,,,,,0,50545777,,0,0,61,实体门架,在用,,,陕西省,省界收费门架,省界出口
,G001537007000820080,沈海鲁苏-岚山门架,0,,35.104,119.252,K762+000,0,,,,,,,,,,,,,0,60302303,,0,0,37,实体门架,在用,,,山东省,省界收费门架,省界入口
,G421361001000110020,陕西平利省界至平利东匝道,0,,32.3474,109.485,K586+190,0,,,,,,,,,,,,,0,57916423,,0,0,61,实体门架,在用,,,陕西省,省界收费门架,省界入口
,G421361001000110010,陕西平利省界至平利东匝道,0,,32.3409,109.501,K584+510,0,,,,,,,,,,,,,0,57916408,,0,0,61,实体门架,在用,,,陕西省,省界收费门架,省界入口
,G421361001000120010,平利东匝道至陕西平利省界,0,,32.3476,109.484,K586+290,0,,,,,,,,,,,,,0,57916424,,0,0,61,实体门架,在用,,,陕西省,省界收费门架,省界出口
,G421361001000120020,平利东匝道至陕西平利省界,0,,32.3551,109.461,K588+630,0,,,,,,,,,,,,,0,57916452,,0,0,61,实体门架,在用,,,陕西省,省界收费门架,省界出口
,G007061001000110020,漫川关主线至漫川关匝道,0,,33.2211,110.081,K1475+100,0,,,,,,,,,,,,,0,3788763,,0,0,61,实体门架,在用,,,陕西省,省界收费门架,省界入口
,G007061001000110010,漫川关主线至漫川关匝道,0,,33.2196,110.086,K1474+580,0,,,,,,,,,,,,,0,49662221,,0,0,61,实体门架,在用,,,陕西省,省界收费门架,省界入口
,G007061001000120010,漫川关匝道至漫川关主线,0,,33.2212,110.08,K1475+130,0,,,,,,,,,,,,,0,3788762,,0,0,61,实体门架,在用,,,陕西省,省界收费门架,省界出口
,G007061001000120020,漫川关匝道至漫川关主线,0,,33.2264,110.074,K1476+000,0,,,,,,,,,,,,,0,3790226,,0,0,61,实体门架,在用,,,陕西省,省界收费门架,省界出口
,G701161002001520010,陕西略阳至略阳,0,,33.5776,106.055,K537+640,0,,,,,,,,,,,,,0,54375425,,0,0,61,实体门架,在用,,,陕西省,省界收费门架,省界入口
,G701161002001510010,略阳至陕西略阳,0,,33.5575,106.056,K535+410,0,,,,,,,,,,,,,0,15035604,,0,0,61,实体门架,在用,,,陕西省,省界收费门架,省界出口
,G007061006001720010,陕西长武省界至长武匝道,0,,35.2312,107.755,K1857+315,0,,,,,,,,,,,,,0,609118382,,0,0,61,实体门架,在用,,,陕西省,省界收费门架,省界入口
,G007061006001720020,陕西长武省界至长武匝道,0,,35.2319,107.75,K1857+815,0,,,,,,,,,,,,,0,6169439,,0,0,61,实体门架,在用,,,陕西省,省界收费门架,省界入口
,G007061006001710020,长武匝道至陕西长武省界,0,,35.2312,107.756,K1857+285,0,,,,,,,,,,,,,0,502118141,,0,0,61,实体门架,在用,,,陕西省,省界收费门架,省界出口
,G003034001000520010,连霍高速皖豫省界-张庄寨1,0,,34.1454,116.574,K288+040,0,,,,,,,,,,,,,0,110241436,,0,0,34,实体门架,在用,,,安徽省,省界收费门架,省界入口
,G003034001000510020,张庄寨-连霍高速皖豫省界2,0,,34.144,116.582,K287+300,0,,,,,,,,,,,,,0,62766271,,0,0,34,实体门架,在用,,,安徽省,省界收费门架,省界出口
,S004941009005320020,焦桐豫鄂省界_桐柏东北向南第二排,0,,32.3611,113.484,K194+845,0,,,,,,,,,,,,,0,30189423,,0,0,41,实体门架,在用,,,河南省,省界收费门架,省界入口
,S004941009005320010,焦桐豫鄂省界_桐柏东北向南第一排,0,,32.3575,113.486,K195+345,0,,,,,,,,,,,,,0,109817683,,0,0,41,实体门架,在用,,,河南省,省界收费门架,省界入口
,S004941009005310020,桐柏东_焦桐豫鄂省界南向北第二排,0,,32.3615,113.483,K194+815,0,,,,,,,,,,,,,0,30189369,,0,0,41,实体门架,在用,,,河南省,省界收费门架,省界出口
,S004941009005310010,桐柏东_焦桐豫鄂省界南向北第一排,0,,32.3651,113.479,K194+300,0,,,,,,,,,,,,,0,30189369,,0,0,41,实体门架,在用,,,河南省,省界收费门架,省界出口
,G701161001000120010,白河至陕西白河,0,,32.7361,110.125,K81+000,0,,,,,,,,,,,,,0,15037381,,0,0,61,实体门架,在用,,,陕西省,省界收费门架,省界出口
,G701161001000120020,白河至陕西白河,0,,32.7383,110.122,K81+600,0,,,,,,,,,,,,,0,15037378,,0,0,61,实体门架,在用,,,陕西省,省界收费门架,省界出口
,G006551001000210010,达陕万源北站-达陕官渡枢纽门架,0,,32.1443,108.056,K1205+870,0,,,,,,,,,,,,,0,109263950,,0,0,51,实体门架,在用,,,四川省,省界收费门架,省界入口
,G006551001000110010,达陕四川站-达陕万源北站门架,0,,32.1781,108.068,K1201+870,0,,,,,,,,,,,,,0,90546488,,0,0,51,实体门架,在用,,,四川省,省界收费门架,省界入口
,G006561013000820010,陕西巴山省界至巴山匝道,0,,32.2795,108.146,K1186+620,0,,,,,,,,,,,,,0,49603917,,0,0,61,实体门架,在用,,,陕西省,省界收费门架,省界入口
,G006561013000810010,巴山匝道至陕西巴山省界,0,,32.2794,108.146,K1186+480,0,,,,,,,,,,,,,0,14097626,,0,0,61,实体门架,在用,,,陕西省,省界收费门架,省界出口
,G701161001000110020,陕西白河至白河,0,,32.7347,110.128,K80+950,0,,,,,,,,,,,,,0,15037379,,0,0,61,实体门架,在用,,,陕西省,省界收费门架,省界入口
,G701161001000110010,陕西白河至白河,0,,32.7331,110.135,K80+260,0,,,,,,,,,,,,,0,31959955,,0,0,61,实体门架,在用,,,陕西省,省界收费门架,省界入口
,G006550001000110020,草坝场-大湾2,0,,30.0358,106.843,K1496+005,0,,,,,,,,,,,,,0,1771647,,0,0,50,实体门架,在用,,,重庆市,省界收费门架,省界入口
,G006550001000110010,草坝场-大湾1,0,,30.043,106.844,K1495+309,0,,,,,,,,,,,,,0,29762866,,0,0,50,实体门架,在用,,,重庆市,省界收费门架,省界入口
,G006550001000120020,大湾-草坝场2,0,,30.0308,106.843,K1496+627,0,,,,,,,,,,,,,0,79929721,,0,0,50,实体门架,在用,,,重庆市,省界收费门架,省界出口
,G006550001000120010,大湾-草坝场1,0,,30.0264,106.842,K1497+130,0,,,,,,,,,,,,,0,72044507,,0,0,50,实体门架,在用,,,重庆市,省界收费门架,省界出口
,G008550001000110020,G85合川-香龙2,0,,30.2805,106.595,K1109+100,0,,,,,,,,,,,,,0,73112631,,0,0,50,实体门架,在用,,,重庆市,省界收费门架,省界入口
,G008550001000110010,G85合川-香龙1,0,,30.2869,106.597,K1108+400,0,,,,,,,,,,,,,0,73112630,,0,0,50,实体门架,在用,,,重庆市,省界收费门架,省界入口
,G008550001000120020,香龙-G85合川2,0,,30.2779,106.593,K1109+930,0,,,,,,,,,,,,,0,9741523,,0,0,50,实体门架,在用,,,重庆市,省界收费门架,省界出口
,G008550001000120010,香龙-G85合川1,0,,30.2735,106.59,K1109+230,0,,,,,,,,,,,,,0,9741523,,0,0,50,实体门架,在用,,,重庆市,省界收费门架,省界出口
,G008551057002320010,巴广渝四川虚拟站-巴广渝伏龙站门架01,0,,30.2943,106.603,K1105+500,0,,,,,,,,,,,,,0,73112595,,0,0,51,实体门架,在用,,,四川省,省界收费门架,省界入口
,G008551057002320020,巴广渝四川虚拟站-巴广渝伏龙站门架02,0,,30.2937,106.603,K1105+800,0,,,,,,,,,,,,,0,73112594,,0,0,51,实体门架,在用,,,四川省,省界收费门架,省界入口
,G008551057002310020,巴广渝伏龙站-巴广渝四川虚拟站门架02,0,,30.3017,106.608,K1106+820,0,,,,,,,,,,,,,0,73112600,,0,0,51,实体门架,在用,,,四川省,省界收费门架,省界出口
,G008551057002310010,巴广渝伏龙站-巴广渝四川虚拟站门架01,0,,30.3043,106.609,K1106+660,0,,,,,,,,,,,,,0,71859768,,0,0,51,实体门架,在用,,,四川省,省界收费门架,省界出口
,G007562004000810010,余家湾匝道站-甘川省界1,0,,32.7624,105.413,K536+090,0,,,,,,,,,,,,,0,102348375,,0,0,62,实体门架,在用,,,甘肃省,省界收费门架,省界出口
,G003062001000710010,甘陕省界-东岔匝道站1,0,,34.3762,106.673,K1272+700,0,,,,,,,,,,,,,0,6242499,,0,0,62,实体门架,在用,,,甘肃省,省界收费门架,省界入口
,G002262003000920010,甘宁省界-平凉西站1,0,,35.5428,106.581,K1572+430,0,,,,,,,,,,,,,0,41621740,,0,0,62,实体门架,在用,,,甘肃省,省界收费门架,省界入口
,G007062001000220010,凤口匝道站-甘陕省界1,0,,35.2578,107.703,K1864+540,0,,,,,,,,,,,,,0,90481402,,0,0,62,实体门架,在用,,,甘肃省,省界收费门架,省界出口
,G002262004000120020,静宁站-甘宁省界1,0,,35.557,105.799,K1651+170,0,,,,,,,,,,,,,0,109928748,,0,0,62,实体门架,在用,,,甘肃省,省界收费门架,省界出口
